time_s,phase_name,fsm_state,fsm_target_step,fsm_hold_reason,phase_transition,stair_mode,stair_guard,contact_mask,x_vel_eff,dx_vel_eff,y_vel_eff,yaw_rate_eff,dyaw_rate_eff,z_cmd,dz_cmd,pitch_cmd,dpitch_cmd,support_h,foot_support_h,support_margin_x,support_margin_xy,support_forward_margin_x,support_center_y,rear_stepup_shift_x,rear_stepup_shift_y,forced_rear_leg,forced_rear_active,forced_rear_stepup_active,forced_rear_phase,forced_rear_start_s,forced_rear_end_s,forced_rear_retry_after_s,base_x,base_y,base_z,roll,pitch,yaw,base_vx,base_vy,base_vz,base_wx,base_wy,base_wz,mode,target_x_vel,x_vel,tau_max,tau_sat_frac,tau_rate_limited,force_rate_limited,qp_fail_count,mpc_update_ms,mpc_solve_ms,fl_contact_cmd,fl_touchdown_event,fl_liftoff_event,fl_touchdown_age,fl_stance_blend,fl_force_blend,fl_mpc_fx,fl_mpc_fy,fl_mpc_fz,fl_mpc_force_delta,fl_foot_nom_x,fl_foot_nom_z,fl_foot_des_x,fl_foot_des_y,fl_foot_des_z,fl_foot_now_x,fl_foot_now_y,fl_foot_now_z,fl_foot_vx,fl_foot_vy,fl_foot_vz,fl_foot_err,fl_foot_err_x,fl_foot_err_y,fl_foot_err_z,fl_terrain_clearance,fl_takeoff_step,fl_touchdown_step,fl_target_step,fl_foothold_projected,fl_projection_reason,fl_projection_delta_x,fl_projection_delta_y,fl_terrain_peak,fl_swing_apex_z,fl_swing_clearance,fl_riser_phase,fl_peak_phase,fl_terminal_vz_limit,fl_observed_step_index,fl_confirmed_step,fl_rear_prepare_step,fl_contact_confidence,fl_on_safe_tread,fl_near_edge,fl_edge_distance,fl_touchdown_confirmed,fl_target_step_source,fl_is_forced_rear,fl_candidate_score,fl_selected_candidate_score,fl_replan_reason,fl_hip_q,fl_hip_dq,fl_hip_tau,fl_hip_tau_rate,fl_hip_tau_sat,fl_thigh_q,fl_thigh_dq,fl_thigh_tau,fl_thigh_tau_rate,fl_thigh_tau_sat,fl_calf_q,fl_calf_dq,fl_calf_tau,fl_calf_tau_rate,fl_calf_tau_sat,fr_contact_cmd,fr_touchdown_event,fr_liftoff_event,fr_touchdown_age,fr_stance_blend,fr_force_blend,fr_mpc_fx,fr_mpc_fy,fr_mpc_fz,fr_mpc_force_delta,fr_foot_nom_x,fr_foot_nom_z,fr_foot_des_x,fr_foot_des_y,fr_foot_des_z,fr_foot_now_x,fr_foot_now_y,fr_foot_now_z,fr_foot_vx,fr_foot_vy,fr_foot_vz,fr_foot_err,fr_foot_err_x,fr_foot_err_y,fr_foot_err_z,fr_terrain_clearance,fr_takeoff_step,fr_touchdown_step,fr_target_step,fr_foothold_projected,fr_projection_reason,fr_projection_delta_x,fr_projection_delta_y,fr_terrain_peak,fr_swing_apex_z,fr_swing_clearance,fr_riser_phase,fr_peak_phase,fr_terminal_vz_limit,fr_observed_step_index,fr_confirmed_step,fr_rear_prepare_step,fr_contact_confidence,fr_on_safe_tread,fr_near_edge,fr_edge_distance,fr_touchdown_confirmed,fr_target_step_source,fr_is_forced_rear,fr_candidate_score,fr_selected_candidate_score,fr_replan_reason,fr_hip_q,fr_hip_dq,fr_hip_tau,fr_hip_tau_rate,fr_hip_tau_sat,fr_thigh_q,fr_thigh_dq,fr_thigh_tau,fr_thigh_tau_rate,fr_thigh_tau_sat,fr_calf_q,fr_calf_dq,fr_calf_tau,fr_calf_tau_rate,fr_calf_tau_sat,rl_contact_cmd,rl_touchdown_event,rl_liftoff_event,rl_touchdown_age,rl_stance_blend,rl_force_blend,rl_mpc_fx,rl_mpc_fy,rl_mpc_fz,rl_mpc_force_delta,rl_foot_nom_x,rl_foot_nom_z,rl_foot_des_x,rl_foot_des_y,rl_foot_des_z,rl_foot_now_x,rl_foot_now_y,rl_foot_now_z,rl_foot_vx,rl_foot_vy,rl_foot_vz,rl_foot_err,rl_foot_err_x,rl_foot_err_y,rl_foot_err_z,rl_terrain_clearance,rl_takeoff_step,rl_touchdown_step,rl_target_step,rl_foothold_projected,rl_projection_reason,rl_projection_delta_x,rl_projection_delta_y,rl_terrain_peak,rl_swing_apex_z,rl_swing_clearance,rl_riser_phase,rl_peak_phase,rl_terminal_vz_limit,rl_observed_step_index,rl_confirmed_step,rl_rear_prepare_step,rl_contact_confidence,rl_on_safe_tread,rl_near_edge,rl_edge_distance,rl_touchdown_confirmed,rl_target_step_source,rl_is_forced_rear,rl_candidate_score,rl_selected_candidate_score,rl_replan_reason,rl_hip_q,rl_hip_dq,rl_hip_tau,rl_hip_tau_rate,rl_hip_tau_sat,rl_thigh_q,rl_thigh_dq,rl_thigh_tau,rl_thigh_tau_rate,rl_thigh_tau_sat,rl_calf_q,rl_calf_dq,rl_calf_tau,rl_calf_tau_rate,rl_calf_tau_sat,rr_contact_cmd,rr_touchdown_event,rr_liftoff_event,rr_touchdown_age,rr_stance_blend,rr_force_blend,rr_mpc_fx,rr_mpc_fy,rr_mpc_fz,rr_mpc_force_delta,rr_foot_nom_x,rr_foot_nom_z,rr_foot_des_x,rr_foot_des_y,rr_foot_des_z,rr_foot_now_x,rr_foot_now_y,rr_foot_now_z,rr_foot_vx,rr_foot_vy,rr_foot_vz,rr_foot_err,rr_foot_err_x,rr_foot_err_y,rr_foot_err_z,rr_terrain_clearance,rr_takeoff_step,rr_touchdown_step,rr_target_step,rr_foothold_projected,rr_projection_reason,rr_projection_delta_x,rr_projection_delta_y,rr_terrain_peak,rr_swing_apex_z,rr_swing_clearance,rr_riser_phase,rr_peak_phase,rr_terminal_vz_limit,rr_observed_step_index,rr_confirmed_step,rr_rear_prepare_step,rr_contact_confidence,rr_on_safe_tread,rr_near_edge,rr_edge_distance,rr_touchdown_confirmed,rr_target_step_source,rr_is_forced_rear,rr_candidate_score,rr_selected_candidate_score,rr_replan_reason,rr_hip_q,rr_hip_dq,rr_hip_tau,rr_hip_tau_rate,rr_hip_tau_sat,rr_thigh_q,rr_thigh_dq,rr_thigh_tau,rr_thigh_tau_rate,rr_thigh_tau_sat,rr_calf_q,rr_calf_dq,rr_calf_tau,rr_calf_tau_rate,rr_calf_tau_sat
0.0000,approach,approach,1,approach_nominal,0,0,0,1111,0.0006,0.0000,0.0000,0.0000,0.0000,0.2783,0.0000,0.0000,0.0000,0.0000,0.0010,0.1770,0.1483,0.1921,0.0000,0.0000,0.0000,,0,0,idle,nan,nan,0.0000,0.0000,0.0000,0.2774,0.0000,-0.0000,0.0000,0.0000,0.0000,0.0000,0.0000,0.0000,0.0000,crawl,0.0600,0.0006,10.2771,0.0000,0,0,0,0.6661,4.1420,1,0,0,0.1800,1.0000,1.0000,4.0392,-3.1070,40.7951,0.0000,0.1904,0.0200,0.1967,0.1485,0.0210,0.1967,0.1485,0.0210,0.0000,0.0000,0.0000,0.0000,0.0000,0.0000,0.0000,0.0210,-1,-1,0,0,none,0.0000,0.0000,nan,nan,nan,nan,nan,nan,0,0,0,0.0909,1,0,0.2115,0,nominal_approach,0,0.0000,0.0000,none,0.0000,0.0000,-2.0758,0.0000,0,0.9000,0.0000,1.9232,0.0000,0,-1.8000,0.0000,7.1320,0.0000,0,1,0,0,0.1800,1.0000,1.0000,-0.4108,-2.7293,33.6695,0.0000,0.1899,0.0200,0.1967,-0.1485,0.0210,0.1967,-0.1485,0.0210,0.0000,0.0000,0.0000,0.0000,0.0000,0.0000,0.0000,0.0210,-1,-1,0,0,none,0.0000,0.0000,nan,nan,nan,nan,nan,nan,0,0,0,0.0909,1,0,0.2115,0,nominal_approach,0,0.0000,0.0000,none,-0.0000,0.0000,2.8776,0.0000,0,0.9000,0.0000,0.6956,0.0000,0,-1.8000,0.0000,5.3455,0.0000,0,1,0,0,0.1800,1.0000,1.0000,4.2895,-5.0941,59.3583,0.0000,-0.1795,0.0200,-0.1724,0.1485,0.0210,-0.1724,0.1485,0.0210,0.0000,0.0000,0.0000,0.0000,0.0000,0.0000,0.0000,0.0210,-1,-1,0,0,none,0.0000,0.0000,nan,nan,nan,nan,nan,nan,0,0,0,0.0909,1,0,0.2115,0,nominal_approach,0,0.0000,0.0000,none,0.0000,0.0000,-3.3762,0.0000,0,0.9000,0.0000,2.2127,0.0000,0,-1.8000,0.0000,10.2771,0.0000,0,1,0,0,0.1800,1.0000,1.0000,4.5208,-4.6736,39.5819,0.0000,-0.1790,0.0200,-0.1724,-0.1485,0.0210,-0.1724,-0.1485,0.0210,0.0000,0.0000,0.0000,0.0000,0.0000,0.0000,0.0000,0.0210,-1,-1,0,0,none,0.0000,0.0000,nan,nan,nan,nan,nan,nan,0,0,0,0.0909,1,0,0.2115,0,nominal_approach,0,0.0000,0.0000,none,-0.0000,0.0000,3.9526,0.0000,0,0.9000,0.0000,2.0319,0.0000,0,-1.8000,0.0000,6.9927,0.0000,0
0.0250,approach,approach,1,approach_nominal,0,0,0,1111,0.0036,0.0030,0.0002,0.0000,0.0000,0.2776,-0.0007,0.0003,0.0003,0.0000,0.0002,0.1772,0.1485,0.1919,-0.0000,0.0000,0.0000,,0,0,idle,nan,nan,0.0000,0.0003,-0.0002,0.2773,0.0005,-0.0005,-0.0002,0.0200,-0.0149,-0.0003,0.0407,-0.0246,-0.0147,crawl,0.0600,0.0036,10.2558,0.0000,0,0,0,0.6661,4.1420,1,0,0,0.1800,1.0000,1.0000,4.0392,-3.1070,40.7951,0.0000,0.1904,0.0200,0.1967,0.1485,0.0206,0.1967,0.1485,0.0206,0.0035,-0.0013,-0.0213,0.0000,0.0000,0.0000,0.0000,0.0206,-1,-1,0,0,none,0.0000,0.0000,nan,nan,nan,nan,nan,nan,0,0,0,0.5455,1,0,0.2115,0,nominal_approach,0,0.0000,0.0000,none,0.0004,0.0235,-2.0826,-0.2731,0,0.8997,-0.0090,1.9155,-0.3056,0,-1.7967,0.2046,7.1207,-0.4497,0,1,0,0,0.1800,1.0000,1.0000,-0.4108,-2.7293,33.6695,0.0000,0.1899,0.0200,0.1967,-0.1485,0.0207,0.1967,-0.1485,0.0207,0.0021,-0.0013,-0.0166,0.0000,0.0000,0.0000,0.0000,0.0207,-1,-1,0,0,none,0.0000,0.0000,nan,nan,nan,nan,nan,nan,0,0,0,0.5455,1,0,0.2115,0,nominal_approach,0,0.0000,0.0000,none,0.0004,0.0236,2.8718,-0.2303,0,0.9005,0.0480,0.6891,-0.2587,0,-1.7985,0.0730,5.3395,-0.2438,0,1,0,0,0.1800,1.0000,1.0000,4.2895,-5.0941,59.3583,0.0000,-0.1795,0.0200,-0.1723,0.1485,0.0202,-0.1723,0.1485,0.0202,0.0040,-0.0009,-0.0410,0.0000,0.0000,0.0000,0.0000,0.0202,-1,-1,0,0,none,0.0000,0.0000,nan,nan,nan,nan,nan,nan,0,0,0,0.5455,1,0,0.2115,0,nominal_approach,0,0.0000,0.0000,none,0.0001,0.0041,-3.3806,-0.1771,0,0.8990,-0.0395,2.2020,-0.4301,0,-1.7954,0.2595,10.2558,-0.8513,0,1,0,0,0.1800,1.0000,1.0000,4.5208,-4.6736,39.5819,0.0000,-0.1790,0.0200,-0.1724,-0.1485,0.0205,-0.1724,-0.1485,0.0205,0.0019,-0.0009,-0.0229,0.0000,0.0000,0.0000,0.0000,0.0205,-1,-1,0,0,none,0.0000,0.0000,nan,nan,nan,nan,nan,nan,0,0,0,0.5455,1,0,0.2115,0,nominal_approach,0,0.0000,0.0000,none,0.0001,0.0042,3.9483,-0.1701,0,0.9005,0.0515,2.0255,-0.2569,0,-1.7986,0.0672,6.9868,-0.2338,0
0.0500,approach,approach,1,approach_nominal,0,0,0,1111,0.0066,0.0030,0.0006,0.0000,0.0000,0.2774,-0.0002,0.0002,-0.0001,0.0000,0.0000,0.1778,0.1479,0.1913,-0.0001,0.0000,0.0000,,0,0,idle,nan,nan,0.0000,0.0010,-0.0008,0.2775,0.0022,-0.0010,-0.0006,0.0365,-0.0315,0.0110,0.1016,-0.0138,-0.0147,crawl,0.0600,0.0066,10.2162,0.0000,0,0,0,0.6661,4.1420,1,0,0,0.1800,1.0000,1.0000,4.0392,-3.1070,40.7951,0.0000,0.1904,0.0200,0.1968,0.1484,0.0201,0.1968,0.1484,0.0201,0.0052,-0.0025,-0.0139,0.0000,0.0000,0.0000,0.0000,0.0201,-1,-1,0,0,none,0.0000,0.0000,nan,nan,nan,nan,nan,nan,0,0,0,1.0000,1,0,0.2116,1,nominal_approach,0,0.0000,0.0000,none,0.0010,0.0221,-2.1039,-0.8528,0,0.8997,0.0032,1.8936,-0.8786,0,-1.7906,0.2695,7.0969,-0.9533,0,1,0,0,0.1800,1.0000,1.0000,-0.4108,-2.7293,33.6695,0.0000,0.1899,0.0200,0.1968,-0.1486,0.0203,0.1968,-0.1486,0.0203,0.0029,-0.0025,-0.0101,0.0000,0.0000,0.0000,0.0000,0.0203,-1,-1,0,0,none,0.0000,0.0000,nan,nan,nan,nan,nan,nan,0,0,0,1.0000,1,0,0.2114,1,nominal_approach,0,0.0000,0.0000,none,0.0010,0.0225,2.8541,-0.7085,0,0.9026,0.1197,0.6706,-0.7415,0,-1.7972,0.0317,5.3277,-0.4722,0,1,0,0,0.1800,1.0000,1.0000,4.2895,-5.0941,59.3583,0.0000,-0.1795,0.0200,-0.1722,0.1485,0.0193,-0.1722,0.1485,0.0193,0.0053,-0.0020,-0.0244,0.0000,0.0000,0.0000,0.0000,0.0193,-1,-1,0,0,none,0.0000,0.0000,nan,nan,nan,nan,nan,nan,0,0,0,1.0000,1,0,0.2115,1,nominal_approach,0,0.0000,0.0000,none,0.0002,0.0027,-3.4034,-0.9095,0,0.8985,-0.0089,2.1689,-1.3212,0,-1.7885,0.2917,10.2162,-1.5841,0,1,0,0,0.1800,1.0000,1.0000,4.5208,-4.6736,39.5819,0.0000,-0.1790,0.0200,-0.1723,-0.1485,0.0201,-0.1723,-0.1485,0.0201,0.0028,-0.0021,-0.0134,0.0000,0.0000,0.0000,0.0000,0.0201,-1,-1,0,0,none,0.0000,0.0000,nan,nan,nan,nan,nan,nan,0,0,0,1.0000,1,0,0.2115,1,nominal_approach,0,0.0000,0.0000,none,0.0002,0.0031,3.9317,-0.6632,0,0.9027,0.1199,2.0047,-0.8331,0,-1.7974,0.0319,6.9758,-0.4405,0
0.0750,approach,approach,1,approach_nominal,0,0,0,1111,0.0096,0.0030,0.0014,0.0000,0.0000,0.2774,0.0000,0.0001,-0.0001,0.0000,0.0000,0.1788,0.1470,0.1904,-0.0001,0.0000,0.0000,,0,0,idle,nan,nan,0.0000,0.0021,-0.0018,0.2779,0.0056,-0.0011,-0.0009,0.0523,-0.0484,0.0233,0.1672,0.0003,-0.0083,crawl,0.0600,0.0096,10.1641,0.0000,0,0,0,0.6661,4.1420,1,0,0,0.1800,1.0000,1.0000,4.0392,-3.1070,40.7951,0.0000,0.1904,0.0200,0.1970,0.1484,0.0199,0.1970,0.1484,0.0199,0.0068,-0.0035,-0.0061,0.0000,0.0000,0.0000,0.0000,0.0199,-1,-1,0,0,none,0.0000,0.0000,nan,nan,nan,nan,nan,nan,0,0,0,1.0000,1,0,0.2116,1,nominal_approach,0,0.0000,0.0000,none,0.0014,0.0117,-2.1394,-1.4168,0,0.8998,0.0051,1.8592,-1.3759,0,-1.7831,0.3343,7.0640,-1.3156,0,1,0,0,0.1800,1.0000,1.0000,-0.4108,-2.7293,33.6695,0.0000,0.1899,0.0200,0.1969,-0.1486,0.0201,0.1969,-0.1486,0.0201,0.0039,-0.0036,-0.0052,0.0000,0.0000,0.0000,0.0000,0.0201,-1,-1,0,0,none,0.0000,0.0000,nan,nan,nan,nan,nan,nan,0,0,0,1.0000,1,0,0.2114,1,nominal_approach,0,0.0000,0.0000,none,0.0014,0.0128,2.8247,-1.1744,0,0.9064,0.1816,0.6401,-1.2214,0,-1.7969,0.0036,5.3117,-0.6361,0,1,0,0,0.1800,1.0000,1.0000,4.2895,-5.0941,59.3583,0.0000,-0.1795,0.0200,-0.1721,0.1484,0.0189,-0.1721,0.1484,0.0189,0.0068,-0.0032,-0.0102,0.0000,0.0000,0.0000,0.0000,0.0189,-1,-1,0,0,none,0.0000,0.0000,nan,nan,nan,nan,nan,nan,0,0,0,1.0000,1,0,0.2116,1,nominal_approach,0,0.0000,0.0000,none,0.0002,0.0009,-3.4493,-1.8391,0,0.8983,-0.0055,2.1166,-2.0923,0,-1.7805,0.3540,10.1641,-2.0838,0,1,0,0,0.1800,1.0000,1.0000,4.5208,-4.6736,39.5819,0.0000,-0.1790,0.0200,-0.1722,-0.1486,0.0198,-0.1722,-0.1486,0.0198,0.0039,-0.0034,-0.0056,0.0000,0.0000,0.0000,0.0000,0.0198,-1,-1,0,0,none,0.0000,0.0000,nan,nan,nan,nan,nan,nan,0,0,0,1.0000,1,0,0.2114,1,nominal_approach,0,0.0000,0.0000,none,0.0002,0.0022,3.9006,-1.2458,0,0.9065,0.1768,1.9690,-1.4255,0,-1.7969,0.0128,6.9607,-0.6051,0
0.1000,approach,approach,1,approach_nominal,0,0,0,1111,0.0126,0.0030,0.0026,0.0000,0.0000,0.2774,0.0000,0.0000,-0.0001,0.0000,0.0000,0.1802,0.1457,0.1891,-0.0002,0.0000,0.0000,,0,0,idle,nan,nan,0.0000,0.0036,-0.0032,0.2786,0.0106,-0.0010,-0.0010,0.0689,-0.0648,0.0350,0.2288,0.0071,-0.0042,crawl,0.0600,0.0126,7.3183,0.0000,0,0,0,0.7211,1.5484,1,0,0,0.1800,1.0000,1.0000,1.0820,-0.1842,36.1519,6.2327,0.2185,0.0200,0.1972,0.1483,0.0198,0.1972,0.1483,0.0198,0.0086,-0.0046,-0.0016,0.0000,0.0000,0.0000,0.0000,0.0198,-1,-1,0,0,none,0.0000,0.0000,nan,nan,nan,nan,nan,nan,0,0,0,1.0000,1,0,0.2117,1,nominal_approach,0,0.0000,0.0000,none,0.0016,0.0049,-2.4788,-13.5785,0,0.8999,0.0027,0.9992,-34.3994,0,-1.7736,0.4250,5.8462,-48.7122,0,1,0,0,0.1800,1.0000,1.0000,-2.4810,0.1445,42.1934,9.2305,0.2077,0.0200,0.1970,-0.1487,0.0200,0.1970,-0.1487,0.0200,0.0051,-0.0048,-0.0029,0.0000,0.0000,0.0000,0.0000,0.0200,-1,-1,0,0,none,0.0000,0.0000,nan,nan,nan,nan,nan,nan,0,0,0,1.0000,1,0,0.2113,1,nominal_approach,0,0.0000,0.0000,none,0.0017,0.0076,2.8471,0.8953,0,0.9117,0.2393,0.1403,-19.9922,0,-1.7968,-0.0014,6.4164,44.1868,0,1,0,0,0.1800,1.0000,1.0000,1.3239,-2.0350,44.9421,15.0327,-0.1663,0.0200,-0.1719,0.1483,0.0188,-0.1719,0.1483,0.0188,0.0085,-0.0043,-0.0032,0.0000,0.0000,0.0000,0.0000,0.0188,-1,-1,0,0,none,0.0000,0.0000,nan,nan,nan,nan,nan,nan,0,0,0,1.0000,1,0,0.2117,1,nominal_approach,0,0.0000,0.0000,none,0.0002,-0.0004,-2.8672,23.2844,0,0.8982,-0.0098,1.1418,-38.9947,0,-1.7705,0.4481,7.3183,-113.8329,0,1,0,0,0.1800,1.0000,1.0000,1.5947,-1.6205,39.6331,4.2292,-0.1561,0.0200,-0.1721,-0.1487,0.0198,-0.1721,-0.1487,0.0198,0.0051,-0.0046,-0.0019,0.0000,0.0000,0.0000,0.0000,0.0198,-1,-1,0,0,none,0.0000,0.0000,nan,nan,nan,nan,nan,nan,0,0,0,1.0000,1,0,0.2113,1,nominal_approach,0,0.0000,0.0000,none,0.0003,0.0023,3.0728,-33.1109,0,0.9116,0.2326,1.1655,-32.1404,0,-1.7966,0.0113,6.5465,-16.5665,0
0.1250,approach,approach,1,approach_nominal,0,0,0,1111,0.0156,0.0030,0.0039,0.0000,0.0000,0.2774,0.0000,0.0000,-0.0000,0.0000,0.0000,0.1817,0.1442,0.1877,-0.0003,0.0000,0.0000,,0,0,idle,nan,nan,0.0000,0.0053,-0.0049,0.2795,0.0164,-0.0004,-0.0011,0.0683,-0.0662,0.0344,0.2313,0.0329,-0.0029,crawl,0.0600,0.0156,7.2587,0.0000,0,0,0,0.7211,1.5484,1,0,0,0.1800,1.0000,1.0000,1.0820,-0.1842,36.1519,0.0000,0.2185,0.0200,0.1974,0.1481,0.0198,0.1974,0.1481,0.0198,0.0080,-0.0046,0.0029,0.0000,0.0000,0.0000,0.0000,0.0198,-1,-1,0,0,none,0.0000,0.0000,nan,nan,nan,nan,nan,nan,0,0,0,1.0000,1,0,0.2119,1,nominal_approach,0,0.0000,0.0000,none,0.0017,0.0056,-2.5310,-2.0886,0,0.8999,0.0032,0.9484,-2.0295,0,-1.7639,0.3690,5.7980,-1.9279,0,1,0,0,0.1800,1.0000,1.0000,-2.4810,0.1445,42.1934,0.0000,0.2077,0.0200,0.1971,-0.1489,0.0198,0.1971,-0.1489,0.0198,0.0051,-0.0048,-0.0094,0.0000,0.0000,0.0000,0.0000,0.0198,-1,-1,0,0,none,0.0000,0.0000,nan,nan,nan,nan,nan,nan,0,0,0,1.0000,1,0,0.2111,1,nominal_approach,0,0.0000,0.0000,none,0.0019,0.0089,2.7858,-2.4505,0,0.9171,0.2090,0.0778,-2.4994,0,-1.7966,0.0045,6.3787,-1.5090,0,1,0,0,0.1800,1.0000,1.0000,1.3239,-2.0350,44.9421,0.0000,-0.1663,0.0200,-0.1717,0.1482,0.0190,-0.1717,0.1482,0.0190,0.0079,-0.0045,0.0126,0.0000,0.0000,0.0000,0.0000,0.0190,-1,-1,0,0,none,0.0000,0.0000,nan,nan,nan,nan,nan,nan,0,0,0,1.0000,1,0,0.2118,1,nominal_approach,0,0.0000,0.0000,none,0.0003,0.0024,-2.9305,-2.5289,0,0.8981,-0.0042,1.0781,-2.5472,0,-1.7605,0.3826,7.2587,-2.3841,0,1,0,0,0.1800,1.0000,1.0000,1.5947,-1.6205,39.6331,0.0000,-0.1561,0.0200,-0.1720,-0.1488,0.0197,-0.1720,-0.1488,0.0197,0.0052,-0.0047,-0.0008,0.0000,0.0000,0.0000,0.0000,0.0197,-1,-1,0,0,none,0.0000,0.0000,nan,nan,nan,nan,nan,nan,0,0,0,1.0000,1,0,0.2112,1,nominal_approach,0,0.0000,0.0000,none,0.0004,0.0057,3.0176,-2.2077,0,0.9168,0.1959,1.1076,-2.3184,0,-1.7960,0.0280,6.5161,-1.2168,0
0.1500,approach,approach,1,approach_nominal,0,0,0,1111,0.0182,0.0026,0.0052,0.0000,0.0000,0.2774,0.0000,0.0000,0.0000,0.0000,0.0000,0.1832,0.1427,0.1862,-0.0005,0.0000,0.0000,,0,0,idle,nan,nan,0.0000,0.0070,-0.0065,0.2803,0.0222,0.0004,-0.0012,0.0689,-0.0658,0.0339,0.2296,0.0317,-0.0030,crawl,0.0600,0.0186,7.1987,0.0000,0,0,0,0.7211,1.5484,1,0,0,0.1800,1.0000,1.0000,1.0820,-0.1842,36.1519,0.0000,0.2185,0.0200,0.1976,0.1480,0.0199,0.1976,0.1480,0.0199,0.0080,-0.0046,0.0023,0.0000,0.0000,0.0000,0.0000,0.0199,-1,-1,0,0,none,0.0000,0.0000,nan,nan,nan,nan,nan,nan,0,0,0,1.0000,1,0,0.2120,1,nominal_approach,0,0.0000,0.0000,none,0.0019,0.0044,-2.5837,-2.1072,0,0.9000,0.0026,0.8973,-2.0465,0,-1.7547,0.3718,5.7501,-1.9156,0,1,0,0,0.1800,1.0000,1.0000,-2.4810,0.1445,42.1934,0.0000,0.2077,0.0200,0.1972,-0.1490,0.0196,0.1972,-0.1490,0.0196,0.0050,-0.0048,-0.0072,0.0000,0.0000,0.0000,0.0000,0.0196,-1,-1,0,0,none,0.0000,0.0000,nan,nan,nan,nan,nan,nan,0,0,0,1.0000,1,0,0.2110,1,nominal_approach,0,0.0000,0.0000,none,0.0021,0.0090,2.7242,-2.4645,0,0.9225,0.2189,0.0152,-2.5030,0,-1.7967,-0.0073,6.3410,-1.5060,0,1,0,0,0.1800,1.0000,1.0000,1.3239,-2.0350,44.9421,0.0000,-0.1663,0.0200,-0.1715,0.1481,0.0193,-0.1715,0.1481,0.0193,0.0082,-0.0044,0.0084,0.0000,0.0000,0.0000,0.0000,0.0193,-1,-1,0,0,none,0.0000,0.0000,nan,nan,nan,nan,nan,nan,0,0,0,1.0000,1,0,0.2119,1,nominal_approach,0,0.0000,0.0000,none,0.0003,0.0009,-2.9943,-2.5535,0,0.8978,-0.0162,1.0140,-2.5647,0,-1.7507,0.4054,7.1987,-2.3977,0,1,0,0,0.1800,1.0000,1.0000,1.5947,-1.6205,39.6331,0.0000,-0.1561,0.0200,-0.1718,-0.1490,0.0197,-0.1718,-0.1490,0.0197,0.0052,-0.0047,-0.0005,0.0000,0.0000,0.0000,0.0000,0.0197,-1,-1,0,0,none,0.0000,0.0000,nan,nan,nan,nan,nan,nan,0,0,0,1.0000,1,0,0.2110,1,nominal_approach,0,0.0000,0.0000,none,0.0006,0.0056,2.9622,-2.2180,0,0.9217,0.2007,1.0494,-2.3248,0,-1.7953,0.0249,6.4850,-1.2442,0
0.1750,approach,approach,1,approach_nominal,0,0,0,1111,0.0183,0.0001,0.0066,0.0000,0.0000,0.2774,0.0000,0.0000,0.0000,0.0000,0.0000,0.1847,0.1411,0.1848,-0.0006,0.0000,0.0000,,0,0,idle,nan,nan,0.0000,0.0088,-0.0082,0.2811,0.0279,0.0013,-0.0012,0.0699,-0.0658,0.0335,0.2309,0.0353,-0.0026,crawl,0.0600,0.0216,7.1357,0.0000,0,0,0,0.7211,1.5484,1,0,0,0.1800,1.0000,1.0000,1.0820,-0.1842,36.1519,0.0000,0.2185,0.0200,0.1978,0.1479,0.0199,0.1978,0.1479,0.0199,0.0081,-0.0046,0.0015,0.0000,0.0000,0.0000,0.0000,0.0199,-1,-1,0,0,none,0.0000,0.0000,nan,nan,nan,nan,nan,nan,0,0,0,1.0000,1,0,0.2121,1,nominal_approach,0,0.0000,0.0000,none,0.0019,0.0015,-2.6363,-2.1038,0,0.9000,-0.0006,0.8455,-2.0729,0,-1.7454,0.3732,5.7012,-1.9575,0,1,0,0,0.1800,1.0000,1.0000,-2.4810,0.1445,42.1934,0.0000,0.2077,0.0200,0.1973,-0.1491,0.0195,0.1973,-0.1491,0.0195,0.0048,-0.0048,-0.0038,0.0000,0.0000,0.0000,0.0000,0.0195,-1,-1,0,0,none,0.0000,0.0000,nan,nan,nan,nan,nan,nan,0,0,0,1.0000,1,0,0.2109,1,nominal_approach,0,0.0000,0.0000,none,0.0023,0.0076,2.6629,-2.4521,0,0.9281,0.2344,-0.0480,-2.5299,0,-1.7972,-0.0338,6.3037,-1.4932,0,1,0,0,0.1800,1.0000,1.0000,1.3239,-2.0350,44.9421,0.0000,-0.1663,0.0200,-0.1713,0.1480,0.0194,-0.1713,0.1480,0.0194,0.0085,-0.0044,0.0039,0.0000,0.0000,0.0000,0.0000,0.0194,-1,-1,0,0,none,0.0000,0.0000,nan,nan,nan,nan,nan,nan,0,0,0,1.0000,1,0,0.2120,1,nominal_approach,0,0.0000,0.0000,none,0.0003,-0.0018,-3.0580,-2.5483,0,0.8972,-0.0378,0.9493,-2.5877,0,-1.7401,0.4387,7.1357,-2.5212,0,1,0,0,0.1800,1.0000,1.0000,1.5947,-1.6205,39.6331,0.0000,-0.1561,0.0200,-0.1717,-0.1491,0.0197,-0.1717,-0.1491,0.0197,0.0053,-0.0047,-0.0001,0.0000,0.0000,0.0000,0.0000,0.0197,-1,-1,0,0,none,0.0000,0.0000,nan,nan,nan,nan,nan,nan,0,0,0,1.0000,1,0,0.2109,1,nominal_approach,0,0.0000,0.0000,none,0.0007,0.0044,2.9068,-2.2155,0,0.9268,0.2001,0.9905,-2.3577,0,-1.7947,0.0261,6.4531,-1.2753,0
0.2000,approach,approach,1,approach_nominal,0,0,0,1111,0.0184,0.0001,0.0079,0.0000,0.0000,0.2774,0.0000,0.0000,0.0000,0.0000,0.0000,0.1833,0.1396,0.1833,-0.0007,0.0000,0.0000,,0,0,idle,nan,nan,0.0000,0.0105,-0.0099,0.2819,0.0337,0.0023,-0.0013,0.0714,-0.0667,0.0328,0.2355,0.0484,-0.0026,crawl,0.0600,0.0246,7.1052,0.0000,0,0,0,0.7101,1.1174,1,0,0,0.1800,1.0000,1.0000,0.3586,0.9020,34.2344,2.3195,0.2371,0.0200,0.1980,0.1478,0.0200,0.1980,0.1478,0.0200,0.0081,-0.0046,0.0010,0.0000,0.0000,0.0000,0.0000,0.0200,-1,-1,0,0,none,0.0000,0.0000,nan,nan,nan,nan,nan,nan,0,0,0,1.0000,1,0,0.2122,1,nominal_approach,0,0.0000,0.0000,none,0.0019,-0.0011,-2.7698,-5.3410,0,0.9000,-0.0043,0.5938,-10.0664,0,-1.7362,0.3624,5.2374,-18.5512,0,1,0,0,0.1800,1.0000,1.0000,-2.7375,1.1667,47.6137,5.5218,0.2214,0.0200,0.1975,-0.1492,0.0194,0.1975,-0.1492,0.0194,0.0047,-0.0049,-0.0017,0.0000,0.0000,0.0000,0.0000,0.0194,-1,-1,0,0,none,0.0000,0.0000,nan,nan,nan,nan,nan,nan,0,0,0,1.0000,1,0,0.2108,1,nominal_approach,0,0.0000,0.0000,none,0.0025,0.0067,2.8129,5.9970,0,0.9341,0.2463,-0.1647,-4.6660,0,-1.7984,-0.0676,7.1052,32.0605,0,1,0,0,0.1800,1.0000,1.0000,0.5825,-0.7776,37.4627,7.6204,-0.1550,0.0200,-0.1710,0.1478,0.0195,-0.1710,0.1478,0.0195,0.0088,-0.0044,0.0017,0.0000,0.0000,0.0000,0.0000,0.0195,-1,-1,0,0,none,0.0000,0.0000,nan,nan,nan,nan,nan,nan,0,0,0,1.0000,1,0,0.2122,1,nominal_approach,0,0.0000,0.0000,none,0.0002,-0.0047,-2.6578,16.0092,0,0.8959,-0.0662,0.6637,-11.4223,0,-1.7288,0.4705,5.7741,-54.4633,0,1,0,0,0.1800,1.0000,1.0000,0.8399,-0.4030,40.2836,1.5733,-0.1400,0.0200,-0.1716,-0.1492,0.0197,-0.1716,-0.1492,0.0197,0.0054,-0.0048,0.0001,0.0000,0.0000,0.0000,0.0000,0.0197,-1,-1,0,0,none,0.0000,0.0000,nan,nan,nan,nan,nan,nan,0,0,0,1.0000,1,0,0.2108,1,nominal_approach,0,0.0000,0.0000,none,0.0008,0.0030,2.5910,-12.6330,0,0.9316,0.1876,0.7371,-10.1375,0,-1.7940,0.0342,6.4129,-1.6079,0
0.2250,approach,approach,1,approach_nominal,0,0,0,1111,0.0185,0.0001,0.0092,0.0000,0.0000,0.2774,0.0000,0.0000,0.0000,0.0000,0.0000,0.1818,0.1381,0.1818,-0.0008,0.0000,0.0000,,0,0,idle,nan,nan,0.0000,0.0123,-0.0115,0.2826,0.0392,0.0033,-0.0013,0.0678,-0.0605,0.0296,0.2063,0.0325,-0.0022,crawl,0.0600,0.0276,7.0619,0.0000,0,0,0,0.7101,1.1174,1,0,0,0.1800,1.0000,1.0000,0.3586,0.9020,34.2344,0.0000,0.2371,0.0200,0.1982,0.1477,0.0200,0.1982,0.1477,0.0200,0.0076,-0.0042,0.0010,0.0000,0.0000,0.0000,0.0000,0.0200,-1,-1,0,0,none,0.0000,0.0000,nan,nan,nan,nan,nan,nan,0,0,0,1.0000,1,0,0.2123,1,nominal_approach,0,0.0000,0.0000,none,0.0020,0.0050,-2.8189,-1.9628,0,0.9001,0.0096,0.5435,-2.0131,0,-1.7274,0.3396,5.1895,-1.9179,0,1,0,0,0.1800,1.0000,1.0000,-2.7375,1.1667,47.6137,0.0000,0.2214,0.0200,0.1976,-0.1493,0.0193,0.1976,-0.1493,0.0193,0.0048,-0.0044,-0.0058,0.0000,0.0000,0.0000,0.0000,0.0193,-1,-1,0,0,none,0.0000,0.0000,nan,nan,nan,nan,nan,nan,0,0,0,1.0000,1,0,0.2107,1,nominal_approach,0,0.0000,0.0000,none,0.0028,0.0126,2.7450,-2.7135,0,0.9399,0.2214,-0.2367,-2.8804,0,-1.7993,-0.0186,7.0619,-1.7311,0,1,0,0,0.1800,1.0000,1.0000,0.5825,-0.7776,37.4627,0.0000,-0.1550,0.0200,-0.1708,0.1477,0.0196,-0.1708,0.1477,0.0196,0.0078,-0.0041,0.0073,0.0000,0.0000,0.0000,0.0000,0.0196,-1,-1,0,0,none,0.0000,0.0000,nan,nan,nan,nan,nan,nan,0,0,0,1.0000,1,0,0.2123,1,nominal_approach,0,0.0000,0.0000,none,0.0002,0.0024,-2.7100,-2.0911,0,0.8951,-0.0114,0.6088,-2.1964,0,-1.7185,0.3756,5.7198,-2.1734,0,1,0,0,0.1800,1.0000,1.0000,0.8399,-0.4030,40.2836,0.0000,-0.1400,0.0200,-0.1714,-0.1493,0.0197,-0.1714,-0.1493,0.0197,0.0051,-0.0043,-0.0010,0.0000,0.0000,0.0000,0.0000,0.0197,-1,-1,0,0,none,0.0000,0.0000,nan,nan,nan,nan,nan,nan,0,0,0,1.0000,1,0,0.2107,1,nominal_approach,0,0.0000,0.0000,none,0.0010,0.0096,2.5353,-2.2249,0,0.9364,0.1944,0.6767,-2.4134,0,-1.7932,0.0272,6.3771,-1.4336,0
0.2500,approach,approach,1,approach_nominal,0,0,0,1111,0.0187,0.0001,0.0104,0.0000,0.0000,0.2774,0.0000,0.0000,0.0000,0.0000,0.0000,0.1804,0.1368,0.1804,-0.0009,0.0000,0.0000,,0,0,idle,nan,nan,0.0000,0.0139,-0.0130,0.2832,0.0441,0.0040,-0.0013,0.0637,-0.0544,0.0265,0.1866,0.0247,-0.0011,crawl,0.0600,0.0306,7.0197,0.0000,0,0,0,0.7101,1.1174,1,0,0,0.1800,1.0000,1.0000,0.3586,0.9020,34.2344,0.0000,0.2371,0.0200,0.1984,0.1476,0.0200,0.1984,0.1476,0.0200,0.0071,-0.0038,0.0004,0.0000,0.0000,0.0000,0.0000,0.0200,-1,-1,0,0,none,0.0000,0.0000,nan,nan,nan,nan,nan,nan,0,0,0,1.0000,1,0,0.2124,1,nominal_approach,0,0.0000,0.0000,none,0.0021,0.0021,-2.8633,-1.7749,0,0.9004,0.0146,0.4960,-1.8971,0,-1.7192,0.3158,5.1441,-1.8140,0,1,0,0,0.1800,1.0000,1.0000,-2.7375,1.1667,47.6137,0.0000,0.2214,0.0200,0.1977,-0.1495,0.0192,0.1977,-0.1495,0.0192,0.0045,-0.0040,-0.0036,0.0000,0.0000,0.0000,0.0000,0.0192,-1,-1,0,0,none,0.0000,0.0000,nan,nan,nan,nan,nan,nan,0,0,0,1.0000,1,0,0.2105,1,nominal_approach,0,0.0000,0.0000,none,0.0030,0.0101,2.6839,-2.4461,0,0.9453,0.2164,-0.3048,-2.7240,0,-1.7997,-0.0205,7.0197,-1.6908,0,1,0,0,0.1800,1.0000,1.0000,0.5825,-0.7776,37.4627,0.0000,-0.1550,0.0200,-0.1706,0.1476,0.0198,-0.1706,0.1476,0.0198,0.0073,-0.0037,0.0043,0.0000,0.0000,0.0000,0.0000,0.0198,-1,-1,0,0,none,0.0000,0.0000,nan,nan,nan,nan,nan,nan,0,0,0,1.0000,1,0,0.2124,1,nominal_approach,0,0.0000,0.0000,none,0.0003,0.0006,-2.7574,-1.8962,0,0.8949,-0.0050,0.5569,-2.0760,0,-1.7095,0.3490,5.6696,-2.0056,0,1,0,0,0.1800,1.0000,1.0000,0.8399,-0.4030,40.2836,0.0000,-0.1400,0.0200,-0.1713,-0.1494,0.0197,-0.1713,-0.1494,0.0197,0.0048,-0.0039,-0.0006,0.0000,0.0000,0.0000,0.0000,0.0197,-1,-1,0,0,none,0.0000,0.0000,nan,nan,nan,nan,nan,nan,0,0,0,1.0000,1,0,0.2106,1,nominal_approach,0,0.0000,0.0000,none,0.0012,0.0083,2.4850,-2.0131,0,0.9413,0.1933,0.6196,-2.2838,0,-1.7926,0.0179,6.3434,-1.3498,0
0.2750,approach,approach,1,approach_nominal,0,0,0,1111,0.0188,0.0001,0.0114,0.0000,0.0000,0.2774,0.0000,0.0000,0.0000,0.0000,0.0000,0.1791,0.1356,0.1791,-0.0010,0.0000,0.0000,,0,0,idle,nan,nan,0.0000,0.0155,-0.0143,0.2838,0.0486,0.0046,-0.0013,0.0598,-0.0492,0.0234,0.1703,0.0234,-0.0009,crawl,0.0600,0.0336,6.9803,0.0000,0,0,0,0.7101,1.1174,1,0,0,0.1800,1.0000,1.0000,0.3586,0.9020,34.2344,0.0000,0.2371,0.0200,0.1985,0.1475,0.0200,0.1985,0.1475,0.0200,0.0065,-0.0034,0.0000,0.0000,0.0000,0.0000,0.0000,0.0200,-1,-1,0,0,none,0.0000,0.0000,nan,nan,nan,nan,nan,nan,0,0,0,1.0000,1,0,0.2125,1,nominal_approach,0,0.0000,0.0000,none,0.0021,-0.0005,-2.9034,-1.6042,0,0.9008,0.0185,0.4515,-1.7801,0,-1.7117,0.2851,5.1017,-1.6947,0,1,0,0,0.1800,1.0000,1.0000,-2.7375,1.1667,47.6137,0.0000,0.2214,0.0200,0.1978,-0.1495,0.0191,0.1978,-0.1495,0.0191,0.0041,-0.0036,-0.0017,0.0000,0.0000,0.0000,0.0000,0.0191,-1,-1,0,0,none,0.0000,0.0000,nan,nan,nan,nan,nan,nan,0,0,0,1.0000,1,0,0.2105,1,nominal_approach,0,0.0000,0.0000,none,0.0033,0.0078,2.6288,-2.2020,0,0.9507,0.2105,-0.3687,-2.5555,0,-1.8004,-0.0318,6.9803,-1.5733,0,1,0,0,0.1800,1.0000,1.0000,0.5825,-0.7776,37.4627,0.0000,-0.1550,0.0200,-0.1705,0.1476,0.0199,-0.1705,0.1476,0.0199,0.0068,-0.0033,0.0021,0.0000,0.0000,0.0000,0.0000,0.0199,-1,-1,0,0,none,0.0000,0.0000,nan,nan,nan,nan,nan,nan,0,0,0,1.0000,1,0,0.2124,1,nominal_approach,0,0.0000,0.0000,none,0.0003,-0.0019,-2.8004,-1.7187,0,0.8948,-0.0064,0.5082,-1.9477,0,-1.7011,0.3271,5.6223,-1.8928,0,1,0,0,0.1800,1.0000,1.0000,0.8399,-0.4030,40.2836,0.0000,-0.1400,0.0200,-0.1712,-0.1495,0.0197,-0.1712,-0.1495,0.0197,0.0044,-0.0036,-0.0002,0.0000,0.0000,0.0000,0.0000,0.0197,-1,-1,0,0,none,0.0000,0.0000,nan,nan,nan,nan,nan,nan,0,0,0,1.0000,1,0,0.2105,1,nominal_approach,0,0.0000,0.0000,none,0.0014,0.0061,2.4395,-1.8218,0,0.9460,0.1835,0.5659,-2.1481,0,-1.7922,0.0129,6.3117,-1.2673,0
0.3000,approach,approach,1,approach_nominal,0,0,0,1111,0.0190,0.0001,0.0124,0.0000,0.0000,0.2774,0.0000,0.0000,-0.0000,0.0000,0.0000,0.1779,0.1345,0.1779,-0.0011,0.0000,0.0000,,0,0,idle,nan,nan,0.0000,0.0169,-0.0155,0.2843,0.0526,0.0052,-0.0013,0.0559,-0.0450,0.0203,0.1565,0.0295,-0.0008,crawl,0.0600,0.0366,10.1671,0.0000,0,0,0,0.7172,2.7261,1,0,0,0.1800,1.0000,1.0000,-1.6592,3.5556,57.5458,23.5485,0.2442,0.0200,0.1987,0.1474,0.0200,0.1987,0.1474,0.0200,0.0059,-0.0031,-0.0002,0.0000,0.0000,0.0000,0.0000,0.0200,-1,-1,0,0,none,0.0000,0.0000,nan,nan,nan,nan,nan,nan,0,0,0,1.0000,1,0,0.2126,1,nominal_approach,0,0.0000,0.0000,none,0.0021,-0.0021,-6.2595,-134.2460,0,0.9013,0.0200,-0.2089,-26.4163,0,-1.7051,0.2465,8.3068,128.2012,0,1,0,0,0.1800,1.0000,1.0000,-4.3756,3.9463,28.0606,19.8175,0.2281,0.0200,0.1979,-0.1496,0.0191,0.1979,-0.1496,0.0191,0.0037,-0.0033,-0.0008,0.0000,0.0000,0.0000,0.0000,0.0191,-1,-1,0,0,none,0.0000,0.0000,nan,nan,nan,nan,nan,nan,0,0,0,1.0000,1,0,0.2104,1,nominal_approach,0,0.0000,0.0000,none,0.0034,0.0063,0.2294,-95.9748,0,0.9558,0.2006,-0.7842,-16.6184,0,-1.8014,-0.0490,3.5731,-136.2881,0,1,0,0,0.1800,1.0000,1.0000,-0.0000,0.0000,0.0000,37.4753,-0.1485,0.0200,-0.1703,0.1475,0.0199,-0.1703,0.1475,0.0199,0.0064,-0.0030,0.0010,0.0000,0.0000,0.0000,0.0000,0.0199,-1,-1,0,0,none,0.0000,0.0000,nan,nan,nan,nan,nan,nan,0,0,0,1.0000,1,0,0.2125,1,nominal_approach,0,0.0000,0.0000,none,0.0002,-0.0036,1.1410,157.6548,0,0.8945,-0.0170,0.4128,-3.8181,0,-1.6931,0.3094,-0.2222,-233.7820,0,1,0,0,0.1800,1.0000,1.0000,-1.7531,3.1679,67.3247,27.3989,-0.1331,0.0200,-0.1711,-0.1496,0.0197,-0.1711,-0.1496,0.0197,0.0042,-0.0033,0.0000,0.0000,0.0000,0.0000,0.0000,0.0197,-1,-1,0,0,none,0.0000,0.0000,nan,nan,nan,nan,nan,nan,0,0,0,1.0000,1,0,0.2104,1,nominal_approach,0,0.0000,0.0000,none,0.0015,0.0046,3.7141,50.9853,0,0.9503,0.1627,-0.2425,-32.3388,0,-1.7919,0.0141,10.1671,154.2186,0
0.3250,approach,approach,1,approach_nominal,0,0,0,1111,0.0191,0.0002,0.0132,0.0000,0.0000,0.2774,0.0000,-0.0004,-0.0004,0.0000,0.0000,0.1769,0.1336,0.1769,-0.0011,0.0000,0.0000,,0,0,idle,nan,nan,0.0000,0.0181,-0.0164,0.2846,0.0558,0.0061,-0.0009,0.0429,-0.0303,0.0113,0.1039,0.0421,0.0168,crawl,0.0600,0.0396,10.1043,0.0000,0,0,0,0.7172,2.7261,1,0,0,0.1800,1.0000,1.0000,-1.6592,3.5556,57.5458,0.0000,0.2442,0.0200,0.1988,0.1474,0.0196,0.1988,0.1474,0.0196,0.0050,-0.0018,-0.0237,0.0000,0.0000,0.0000,0.0000,0.0196,-1,-1,0,0,none,0.0000,0.0000,nan,nan,nan,nan,nan,nan,0,0,0,1.0000,1,0,0.2126,1,nominal_approach,0,0.0000,0.0000,none,0.0018,-0.0155,-6.3086,-1.9626,0,0.9002,-0.0591,-0.2684,-2.3810,0,-1.6978,0.2674,8.2429,-2.5562,0,1,0,0,0.1800,1.0000,1.0000,-4.3756,3.9463,28.0606,0.0000,0.2281,0.0200,0.1980,-0.1497,0.0195,0.1980,-0.1497,0.0195,0.0018,-0.0022,0.0199,0.0000,0.0000,0.0000,0.0000,0.0195,-1,-1,0,0,none,0.0000,0.0000,nan,nan,nan,nan,nan,nan,0,0,0,1.0000,1,0,0.2103,1,nominal_approach,0,0.0000,0.0000,none,0.0035,-0.0011,0.2095,-0.7977,0,0.9618,0.2360,-0.8107,-1.0616,0,-1.8053,-0.1931,3.5572,-0.6372,0,1,0,0,0.1800,1.0000,1.0000,-0.0000,0.0000,0.0000,0.0000,-0.1485,0.0200,-0.1702,0.1474,0.0206,-0.1702,0.1474,0.0206,0.0029,-0.0025,0.0343,0.0000,0.0000,0.0000,0.0000,0.0206,-1,-1,0,0,none,0.0000,0.0000,nan,nan,nan,nan,nan,nan,0,0,0,1.0000,1,0,0.2126,1,nominal_approach,0,0.0000,0.0000,none,0.0005,0.0163,1.1432,0.0903,0,0.8962,0.0886,0.4150,0.0907,0,-1.6906,0.0129,-0.2211,0.0447,0,1,0,0,0.1800,1.0000,1.0000,-1.7531,3.1679,67.3247,0.0000,-0.1331,0.0200,-0.1710,-0.1497,0.0191,-0.1710,-0.1497,0.0191,0.0047,-0.0023,-0.0273,0.0000,0.0000,0.0000,0.0000,0.0191,-1,-1,0,0,none,0.0000,0.0000,nan,nan,nan,nan,nan,nan,0,0,0,1.0000,1,0,0.2103,1,nominal_approach,0,0.0000,0.0000,none,0.0017,0.0106,3.6501,-2.5613,0,0.9518,0.0101,-0.3177,-3.0073,0,-1.7882,0.1883,10.1043,-2.5126,0
0.3500,approach,approach,1,approach_nominal,0,0,0,1101,0.0193,0.0002,0.0136,0.0000,0.0000,0.2774,0.0000,0.0000,0.0004,0.0000,0.0000,0.1761,0.0176,0.1761,-0.0507,0.0000,0.0000,,0,0,idle,nan,nan,0.0000,0.0190,-0.0170,0.2847,0.0578,0.0073,-0.0005,0.0306,-0.0157,0.0023,0.0545,0.0480,0.0120,crawl,0.0600,0.0426,10.0525,0.0000,0,0,0,0.7172,2.7261,1,0,0,0.1800,1.0000,1.0000,-1.6592,3.5556,57.5458,0.0000,0.2442,0.0200,0.1989,0.1473,0.0191,0.1989,0.1473,0.0191,0.0028,-0.0009,-0.0154,0.0000,0.0000,0.0000,0.0000,0.0191,-1,-1,0,0,none,0.0000,0.0000,nan,nan,nan,nan,nan,nan,0,0,0,1.0000,1,0,0.2127,1,nominal_approach,0,0.0000,0.0000,none,0.0014,-0.0115,-6.3365,-1.1147,0,0.8993,-0.0102,-0.3116,-1.7301,0,-1.6932,0.1037,8.1993,-1.7414,0,1,0,0,0.1800,1.0000,1.0000,-4.3756,3.9463,28.0606,0.0000,0.2281,0.0200,0.1980,-0.1497,0.0199,0.1980,-0.1497,0.0199,0.0011,-0.0011,0.0125,0.0000,0.0000,0.0000,0.0000,0.0199,-1,-1,0,0,none,0.0000,0.0000,nan,nan,nan,nan,nan,nan,0,0,0,1.0000,1,0,0.2103,1,nominal_approach,0,0.0000,0.0000,none,0.0034,-0.0027,0.1994,-0.4049,0,0.9668,0.1661,-0.8296,-0.7579,0,-1.8098,-0.1636,3.5484,-0.3528,0,0,0,1,nan,0.0000,0.0000,-0.0000,0.0000,0.0000,0.0000,-0.1522,0.0200,-0.1701,0.1474,0.0213,-0.1701,0.1474,0.0213,0.0020,-0.0014,0.0209,0.0000,0.0000,0.0000,0.0000,0.0213,0,0,0,0,none,0.0000,0.0000,0.0000,0.0800,0.0600,0.5000,0.5000,-0.3200,0,0,0,0.0000,1,0,0.2126,0,nominal_approach,0,0.0000,0.0000,none,0.0008,0.0106,0.9943,-5.9566,0,0.8980,0.0521,0.4507,1.4280,0,-1.6906,-0.0031,0.0405,10.4656,0,1,0,0,0.1800,1.0000,1.0000,-1.7531,3.1679,67.3247,0.0000,-0.1331,0.0200,-0.1709,-0.1497,0.0186,-0.1709,-0.1497,0.0186,0.0032,-0.0012,-0.0167,0.0000,0.0000,0.0000,0.0000,0.0186,-1,-1,0,0,none,0.0000,0.0000,nan,nan,nan,nan,nan,nan,0,0,0,1.0000,1,0,0.2103,1,nominal_approach,0,0.0000,0.0000,none,0.0019,0.0063,3.6080,-1.6828,0,0.9518,-0.0033,-0.3748,-2.2834,0,-1.7842,0.1210,10.0525,-2.0712,0
0.3750,approach,approach,1,approach_nominal,0,0,0,1101,0.0195,0.0002,0.0138,0.0000,0.0000,0.2774,0.0000,0.0001,0.0001,0.0000,0.0000,0.1755,0.0181,0.1755,-0.0507,0.0000,0.0000,,0,0,idle,nan,nan,0.0000,0.0196,-0.0172,0.2846,0.0585,0.0083,-0.0002,0.0171,-0.0016,-0.0070,-0.0035,0.0275,0.0101,crawl,0.0600,0.0456,10.0215,0.0000,0,0,0,0.7172,2.7261,1,0,0,0.1800,1.0000,1.0000,-1.6592,3.5556,57.5458,0.0000,0.2442,0.0200,0.1990,0.1473,0.0188,0.1990,0.1473,0.0188,0.0009,0.0000,-0.0102,0.0000,0.0000,0.0000,0.0000,0.0188,-1,-1,0,0,none,0.0000,0.0000,nan,nan,nan,nan,nan,nan,0,0,0,1.0000,1,0,0.2127,1,nominal_approach,0,0.0000,0.0000,none,0.0013,0.0004,-6.3444,-0.3183,0,0.8996,0.0337,-0.3390,-1.0954,0,-1.6923,-0.0148,8.1796,-0.7892,0,1,0,0,0.1800,1.0000,1.0000,-4.3756,3.9463,28.0606,0.0000,0.2281,0.0200,0.1980,-0.1498,0.0201,0.1980,-0.1498,0.0201,0.0005,-0.0001,0.0058,0.0000,0.0000,0.0000,0.0000,0.0201,-1,-1,0,0,none,0.0000,0.0000,nan,nan,nan,nan,nan,nan,0,0,0,1.0000,1,0,0.2102,1,nominal_approach,0,0.0000,0.0000,none,0.0034,0.0037,0.1972,-0.0858,0,0.9701,0.1039,-0.8416,-0.4770,0,-1.8133,-0.1081,3.5441,-0.1728,0,0,0,0,nan,0.0000,0.0000,-0.0000,0.0000,0.0000,0.0000,-0.1522,0.0200,-0.1700,0.1472,0.0236,-0.1700,0.1477,0.0221,0.0112,0.0509,0.0788,0.0016,0.0000,-0.0005,0.0015,0.0221,0,0,0,0,none,0.0000,0.0000,0.0000,0.0800,0.0600,0.5000,0.5000,-0.3200,0,0,0,0.0000,1,0,0.2123,0,nominal_approach,0,0.0000,0.0000,none,0.0027,0.2197,1.7891,31.7938,0,0.8999,0.1923,0.9008,18.0027,0,-1.6930,-0.3672,-2.6667,-108.2875,0,1,0,0,0.1800,1.0000,1.0000,-1.7531,3.1679,67.3247,0.0000,-0.1331,0.0200,-0.1708,-0.1497,0.0183,-0.1708,-0.1497,0.0183,0.0016,-0.0003,-0.0089,0.0000,0.0000,0.0000,0.0000,0.0183,-1,-1,0,0,none,0.0000,0.0000,nan,nan,nan,nan,nan,nan,0,0,0,1.0000,1,0,0.2103,1,nominal_approach,0,0.0000,0.0000,none,0.0022,0.0138,3.5900,-0.7203,0,0.9518,0.0154,-0.4121,-1.4897,0,-1.7822,0.0396,10.0215,-1.2404,0
0.4000,approach,approach,1,approach_nominal,0,0,0,1101,0.0197,0.0002,0.0136,0.0000,0.0000,0.2774,0.0000,0.0001,0.0001,0.0000,0.0000,0.1753,0.0180,0.1753,-0.0507,0.0000,0.0000,,0,0,idle,nan,nan,0.0000,0.0199,-0.0170,0.2844,0.0576,0.0085,-0.0000,0.0038,0.0158,-0.0158,-0.0669,-0.0076,-0.0041,crawl,0.0600,0.0486,11.1290,0.0000,0,0,0,0.7394,1.8240,1,0,0,0.1800,1.0000,1.0000,0.0916,1.7849,65.1376,7.9898,0.2463,0.0200,0.1990,0.1473,0.0186,0.1990,0.1473,0.0186,-0.0006,0.0010,-0.0052,0.0000,0.0000,0.0000,0.0000,0.0186,-1,-1,0,0,none,0.0000,0.0000,nan,nan,nan,nan,nan,nan,0,0,0,1.0000,1,0,0.2127,1,nominal_approach,0,0.0000,0.0000,none,0.0014,0.0144,-6.7223,-15.1150,0,0.9012,0.0886,0.0857,16.9895,0,-1.6940,-0.1144,9.6063,57.0682,0,1,0,0,0.1800,1.0000,1.0000,-1.9492,1.9125,19.1131,9.4911,0.2299,0.0200,0.1980,-0.1497,0.0202,0.1980,-0.1497,0.0202,-0.0001,0.0011,0.0024,0.0000,0.0000,0.0000,0.0000,0.0202,-1,-1,0,0,none,0.0000,0.0000,nan,nan,nan,nan,nan,nan,0,0,0,1.0000,1,0,0.2103,1,nominal_approach,0,0.0000,0.0000,none,0.0036,0.0124,0.0017,-7.8196,0,0.9720,0.0480,-0.1737,26.7160,0,-1.8152,-0.0489,2.4961,-41.9203,0,0,0,0,nan,0.0000,0.0000,-0.0000,0.0000,0.0000,0.0000,-0.1474,0.0200,-0.1693,0.1466,0.0347,-0.1692,0.1496,0.0272,0.0598,0.0782,0.3347,0.0081,-0.0001,-0.0030,0.0075,0.0272,0,0,0,0,none,0.0000,0.0000,0.0000,0.0800,0.0600,0.5000,0.5000,-0.3200,0,0,0,0.0000,1,0,0.2104,0,nominal_approach,0,0.0000,0.0000,none,0.0109,0.3815,1.5914,-7.9087,0,0.9135,0.9370,1.1237,8.9145,0,-1.7222,-2.0478,-4.1328,-58.6456,0,1,0,0,0.1800,1.0000,1.0000,-0.0403,1.5489,72.7736,5.9368,-0.1310,0.0200,-0.1708,-0.1497,0.0181,-0.1708,-0.1497,0.0181,0.0002,0.0012,-0.0063,0.0000,0.0000,0.0000,0.0000,0.0181,-1,-1,0,0,none,0.0000,0.0000,nan,nan,nan,nan,nan,nan,0,0,0,1.0000,1,0,0.2103,1,nominal_approach,0,0.0000,0.0000,none,0.0024,0.0061,4.4761,35.4428,0,0.9524,0.0241,-0.0167,15.8125,0,-1.7820,-0.0092,11.1290,44.2975,0
0.4250,approach,approach,1,approach_nominal,0,0,0,1101,0.0199,0.0002,0.0132,0.0000,0.0000,0.2774,0.0000,0.0003,0.0001,0.0000,0.0000,0.1754,0.0176,0.1754,-0.0507,0.0000,0.0000,,0,0,idle,nan,nan,0.0000,0.0199,-0.0165,0.2840,0.0555,0.0078,-0.0003,-0.0011,0.0268,-0.0173,-0.0956,-0.0374,-0.0136,crawl,0.0600,0.0516,11.1313,0.0000,0,0,0,0.7394,1.8240,1,0,0,0.1800,1.0000,1.0000,0.0916,1.7849,65.1376,0.0000,0.2463,0.0200,0.1990,0.1474,0.0184,0.1990,0.1474,0.0184,-0.0007,0.0017,-0.0091,0.0000,0.0000,0.0000,0.0000,0.0184,-1,-1,0,0,none,0.0000,0.0000,nan,nan,nan,nan,nan,nan,0,0,0,1.0000,1,0,0.2126,1,nominal_approach,0,0.0000,0.0000,none,0.0018,0.0107,-6.6912,1.2425,0,0.9034,0.0942,0.0811,-0.1834,0,-1.6963,-0.0930,9.6149,0.3422,0,1,0,0,0.1800,1.0000,1.0000,-1.9492,1.9125,19.1131,0.0000,0.2299,0.0200,0.1980,-0.1497,0.0204,0.1980,-0.1497,0.0204,-0.0006,0.0018,0.0103,0.0000,0.0000,0.0000,0.0000,0.0204,-1,-1,0,0,none,0.0000,0.0000,nan,nan,nan,nan,nan,nan,0,0,0,1.0000,1,0,0.2103,1,nominal_approach,0,0.0000,0.0000,none,0.0039,0.0091,0.0105,0.3513,0,0.9736,0.0533,-0.1733,0.0140,0,-1.8166,-0.0455,2.4985,0.0965,0,0,0,0,nan,0.0000,0.0000,-0.0000,0.0000,0.0000,0.0000,-0.1474,0.0200,-0.1676,0.1452,0.0525,-0.1670,0.1508,0.0391,0.1081,0.0045,0.5927,0.0145,-0.0006,-0.0055,0.0134,0.0391,0,0,0,0,none,0.0000,0.0000,0.0000,0.0800,0.0600,0.5000,0.5000,-0.3200,0,0,0,0.0000,1,0,0.2092,0,nominal_approach,0,0.0000,0.0000,none,0.0186,0.1721,1.1317,-18.3874,0,0.9482,1.7341,0.9527,-6.8396,0,-1.7978,-3.8127,-2.8197,52.5259,0,1,0,0,0.1800,1.0000,1.0000,-0.0403,1.5489,72.7736,0.0000,-0.1310,0.0200,-0.1708,-0.1497,0.0179,-0.1708,-0.1497,0.0179,-0.0002,0.0021,-0.0082,0.0000,0.0000,0.0000,0.0000,0.0179,-1,-1,0,0,none,0.0000,0.0000,nan,nan,nan,nan,nan,nan,0,0,0,1.0000,1,0,0.2103,1,nominal_approach,0,0.0000,0.0000,none,0.0024,-0.0113,4.5160,1.5965,0,0.9532,0.0288,-0.0171,-0.0144,0,-1.7821,-0.0047,11.1313,0.0940,0
0.4500,approach,approach,1,approach_nominal,0,0,0,1101,0.0201,0.0002,0.0125,0.0000,0.0000,0.2774,0.0000,0.0004,0.0001,0.0000,0.0000,0.1755,0.0169,0.1755,-0.0506,0.0000,0.0000,,0,0,idle,nan,nan,0.0000,0.0198,-0.0157,0.2836,0.0529,0.0069,-0.0008,-0.0060,0.0346,-0.0156,-0.1057,-0.0332,-0.0226,crawl,0.0600,0.0546,11.1403,0.0000,0,0,0,0.7394,1.8240,1,0,0,0.1800,1.0000,1.0000,0.0916,1.7849,65.1376,0.0000,0.2463,0.0200,0.1989,0.1474,0.0182,0.1989,0.1474,0.0182,-0.0012,0.0021,-0.0051,0.0000,0.0000,0.0000,0.0000,0.0182,-1,-1,0,0,none,0.0000,0.0000,nan,nan,nan,nan,nan,nan,0,0,0,1.0000,1,0,0.2126,1,nominal_approach,0,0.0000,0.0000,none,0.0019,0.0007,-6.6489,1.6923,0,0.9058,0.0992,0.0816,0.0180,0,-1.6991,-0.1292,9.6288,0.5564,0,1,0,0,0.1800,1.0000,1.0000,-1.9492,1.9125,19.1131,0.0000,0.2299,0.0200,0.1980,-0.1497,0.0206,0.1980,-0.1497,0.0206,-0.0007,0.0023,0.0075,0.0000,0.0000,0.0000,0.0000,0.0206,-1,-1,0,0,none,0.0000,0.0000,nan,nan,nan,nan,nan,nan,0,0,0,1.0000,1,0,0.2103,1,nominal_approach,0,0.0000,0.0000,none,0.0040,-0.0036,0.0222,0.4657,0,0.9742,0.0034,-0.1709,0.0963,0,-1.8172,-0.0066,2.5018,0.1320,0,0,0,0,nan,0.0000,0.0000,-0.0000,0.0000,0.0000,0.0000,-0.1474,0.0200,-0.1652,0.1431,0.0698,-0.1639,0.1496,0.0552,0.1310,-0.1011,0.6448,0.0161,-0.0013,-0.0065,0.0146,0.0552,0,0,0,0,none,0.0000,0.0000,0.0000,0.0800,0.0600,0.5000,0.5000,-0.3200,0,0,0,0.0000,1,0,0.2104,0,nominal_approach,0,0.0000,0.0000,none,0.0178,-0.2833,0.2392,-35.7025,0,0.9946,1.8413,0.4833,-18.7737,0,-1.9026,-4.2739,0.1590,119.1478,0,1,0,0,0.1800,1.0000,1.0000,-0.0403,1.5489,72.7736,0.0000,-0.1310,0.0200,-0.1708,-0.1496,0.0177,-0.1708,-0.1496,0.0177,-0.0007,0.0027,-0.0024,0.0000,0.0000,0.0000,0.0000,0.0177,-1,-1,0,0,none,0.0000,0.0000,nan,nan,nan,nan,nan,nan,0,0,0,1.0000,1,0,0.2104,1,nominal_approach,0,0.0000,0.0000,none,0.0018,-0.0339,4.5747,2.3504,0,0.9535,0.0013,-0.0068,0.4124,0,-1.7822,-0.0026,11.1403,0.3607,0
0.4750,approach,approach,1,approach_nominal,0,0,0,1101,0.0203,0.0002,0.0118,0.0000,0.0000,0.2774,0.0000,0.0004,0.0000,0.0000,0.0000,0.1757,0.0162,0.1757,-0.0506,0.0000,0.0000,,0,0,idle,nan,nan,0.0000,0.0196,-0.0147,0.2833,0.0506,0.0064,-0.0014,-0.0093,0.0386,-0.0133,-0.0684,-0.0095,-0.0185,crawl,0.0600,0.0576,11.1531,0.0000,0,0,0,0.7394,1.8240,1,0,0,0.1800,1.0000,1.0000,0.0916,1.7849,65.1376,0.0000,0.2463,0.0200,0.1989,0.1475,0.0181,0.1989,0.1475,0.0181,-0.0017,0.0024,-0.0020,0.0000,0.0000,0.0000,0.0000,0.0181,-1,-1,0,0,none,0.0000,0.0000,nan,nan,nan,nan,nan,nan,0,0,0,1.0000,1,0,0.2125,1,nominal_approach,0,0.0000,0.0000,none,0.0014,-0.0528,-6.5995,1.9775,0,0.9081,0.0800,0.0861,0.1814,0,-1.7027,-0.1602,9.6488,0.8027,0,1,0,0,0.1800,1.0000,1.0000,-1.9492,1.9125,19.1131,0.0000,0.2299,0.0200,0.1980,-0.1496,0.0208,0.1980,-0.1496,0.0208,-0.0009,0.0027,0.0045,0.0000,0.0000,0.0000,0.0000,0.0208,-1,-1,0,0,none,0.0000,0.0000,nan,nan,nan,nan,nan,nan,0,0,0,1.0000,1,0,0.2104,1,nominal_approach,0,0.0000,0.0000,none,0.0033,-0.0589,0.0355,0.5351,0,0.9738,-0.0334,-0.1671,0.1517,0,-1.8172,-0.0014,2.5058,0.1607,0,0,0,0,nan,0.0000,0.0000,-0.0000,0.0000,0.0000,0.0000,-0.1474,0.0200,-0.1622,0.1406,0.0794,-0.1606,0.1456,0.0687,0.1276,-0.2050,0.4059,0.0119,-0.0016,-0.0050,0.0107,0.0687,0,0,0,0,none,0.0000,0.0000,0.0000,0.0800,0.0600,0.5000,0.5000,-0.3200,0,0,0,0.0000,1,0,0.2144,0,nominal_approach,0,0.0000,0.0000,none,0.0022,-0.9373,0.0498,-7.5761,0,1.0325,1.0925,0.0745,-16.3553,0,-1.9968,-3.0679,2.8918,109.3103,0,1,0,0,0.1800,1.0000,1.0000,-0.0403,1.5489,72.7736,0.0000,-0.1310,0.0200,-0.1708,-0.1495,0.0177,-0.1708,-0.1495,0.0177,-0.0008,0.0029,0.0021,0.0000,0.0000,0.0000,0.0000,0.0177,-1,-1,0,0,none,0.0000,0.0000,nan,nan,nan,nan,nan,nan,0,0,0,1.0000,1,0,0.2105,1,nominal_approach,0,0.0000,0.0000,none,0.0005,-0.0822,4.6432,2.7403,0,0.9531,-0.0374,0.0102,0.6815,0,-1.7822,0.0065,11.1531,0.5091,0
0.5000,approach,approach,1,approach_nominal,0,0,0,1101,0.0205,0.0002,0.0110,0.0000,0.0000,0.2774,0.0000,0.0004,0.0000,0.0000,0.0000,0.1759,0.0154,0.1759,-0.0505,0.0000,0.0000,,0,0,idle,nan,nan,0.0000,0.0193,-0.0137,0.2830,0.0493,0.0065,-0.0017,-0.0127,0.0409,-0.0116,-0.0538,0.0137,-0.0064,crawl,0.0600,0.0600,11.4982,0.0000,0,0,0,0.6969,2.9882,1,0,0,0.1800,1.0000,1.0000,0.4584,0.8334,69.4174,4.3996,0.2454,0.0200,0.1989,0.1475,0.0181,0.1989,0.1475,0.0181,-0.0023,0.0027,-0.0008,0.0000,0.0000,0.0000,0.0000,0.0181,-1,-1,0,0,none,0.0000,0.0000,nan,nan,nan,nan,nan,nan,0,0,0,1.0000,1,0,0.2125,1,nominal_approach,0,0.0000,0.0000,none,-0.0006,-0.0828,-6.7627,-6.5284,0,0.9098,0.0559,0.1752,3.5633,0,-1.7071,-0.1892,10.3892,29.6146,0,1,0,0,0.1800,1.0000,1.0000,-0.4047,0.5803,12.8907,6.5481,0.2278,0.0200,0.1979,-0.1495,0.0209,0.1979,-0.1495,0.0209,-0.0010,0.0030,0.0025,0.0000,0.0000,0.0000,0.0000,0.0209,-1,-1,0,0,none,0.0000,0.0000,nan,nan,nan,nan,nan,nan,0,0,0,1.0000,1,0,0.2105,1,nominal_approach,0,0.0000,0.0000,none,0.0012,-0.0901,-0.1309,-6.6560,0,0.9725,-0.0636,0.2651,17.2881,0,-1.8173,0.0003,1.7540,-30.0729,0,0,0,0,nan,0.0000,0.0000,-0.0000,0.0000,-0.0000,0.0000,-0.1151,0.0200,-0.1591,0.1379,0.0771,-0.1579,0.1398,0.0736,0.0845,-0.2419,-0.0095,0.0042,-0.0012,-0.0019,0.0035,0.0736,0,0,0,0,none,0.0000,0.0000,0.0000,0.0800,0.0600,0.5000,0.5000,-0.3200,0,0,0,0.0000,1,0,0.2202,0,nominal_approach,0,0.0000,0.0000,none,-0.0268,-1.2658,0.3108,10.4404,0,1.0446,-0.0590,-0.4094,-19.3540,0,-2.0444,-0.7521,4.0370,45.8067,0,1,0,0,0.1800,1.0000,1.0000,0.4640,0.5861,74.3822,1.9414,-0.1327,0.0200,-0.1708,-0.1495,0.0178,-0.1708,-0.1495,0.0178,-0.0006,0.0029,0.0019,0.0000,0.0000,0.0000,0.0000,0.0178,-1,-1,0,0,none,0.0000,0.0000,nan,nan,nan,nan,nan,nan,0,0,0,1.0000,1,0,0.2105,1,nominal_approach,0,0.0000,0.0000,none,-0.0020,-0.0969,5.1043,18.4405,0,0.9515,-0.0862,0.1535,5.7288,0,-1.7816,0.0404,11.4982,13.8043,0
0.5250,approach,approach,1,approach_nominal,0,0,0,1101,0.0208,0.0002,0.0102,0.0000,0.0000,0.2774,0.0000,0.0004,0.0000,0.0000,0.0000,0.1761,0.0146,0.1761,-0.0504,0.0000,0.0000,,0,0,idle,nan,nan,0.0000,0.0190,-0.0127,0.2828,0.0477,0.0067,-0.0015,-0.0130,0.0363,-0.0159,-0.1457,-0.0134,0.0234,crawl,0.0600,0.0600,11.5067,0.0000,0,0,0,0.6969,2.9882,1,0,0,0.1800,1.0000,1.0000,0.4584,0.8334,69.4174,0.0000,0.2454,0.0200,0.1988,0.1476,0.0180,0.1988,0.1476,0.0180,-0.0026,0.0027,-0.0052,0.0000,0.0000,0.0000,0.0000,0.0180,-1,-1,0,0,none,0.0000,0.0000,nan,nan,nan,nan,nan,nan,0,0,0,1.0000,1,0,0.2124,1,nominal_approach,0,0.0000,0.0000,none,-0.0024,0.0049,-6.6977,2.5997,0,0.9109,0.0664,0.1950,0.7923,0,-1.7114,-0.1888,10.4217,1.3010,0,1,0,0,0.1800,1.0000,1.0000,-0.4047,0.5803,12.8907,0.0000,0.2278,0.0200,0.1979,-0.1494,0.0210,0.1979,-0.1494,0.0210,-0.0007,0.0030,0.0079,0.0000,0.0000,0.0000,0.0000,0.0210,-1,-1,0,0,none,0.0000,0.0000,nan,nan,nan,nan,nan,nan,0,0,0,1.0000,1,0,0.2106,1,nominal_approach,0,0.0000,0.0000,none,-0.0008,-0.0006,-0.1210,0.3946,0,0.9714,-0.0223,0.2680,0.1150,0,-1.8175,0.0023,1.7566,0.1068,0,0,0,0,nan,0.0000,0.0000,-0.0000,0.0000,-0.0000,0.0000,-0.1151,0.0200,-0.1562,0.1355,0.0639,-0.1560,0.1343,0.0685,0.1055,-0.1122,-0.2790,0.0048,-0.0002,0.0011,-0.0046,0.0685,0,0,0,0,none,0.0000,0.0000,0.0000,0.0800,0.0600,0.5000,0.5000,-0.3200,0,0,0,0.0000,1,0,0.2257,0,nominal_approach,0,0.0000,0.0000,none,-0.0552,-0.5155,1.1728,34.4792,0,1.0282,-1.1491,0.5923,40.0686,0,-2.0338,1.1236,0.7119,-133.0012,0,1,0,0,0.1800,1.0000,1.0000,0.4640,0.5861,74.3822,0.0000,-0.1327,0.0200,-0.1709,-0.1494,0.0178,-0.1709,-0.1494,0.0178,-0.0004,0.0021,-0.0034,0.0000,0.0000,0.0000,0.0000,0.0178,-1,-1,0,0,none,0.0000,0.0000,nan,nan,nan,nan,nan,nan,0,0,0,1.0000,1,0,0.2106,1,nominal_approach,0,0.0000,0.0000,none,-0.0038,0.0305,5.1683,2.5621,0,0.9496,-0.0345,0.1732,0.7901,0,-1.7805,0.0237,11.5067,0.3397,0
0.5500,approach,approach,1,approach_nominal,0,0,0,1101,0.0210,0.0003,0.0094,0.0000,0.0000,0.2774,0.0000,0.0004,0.0000,0.0000,0.0000,0.1763,0.0139,0.1763,-0.0503,0.0000,0.0000,,0,0,idle,nan,nan,0.0000,0.0187,-0.0118,0.2823,0.0440,0.0060,-0.0011,-0.0118,0.0389,-0.0212,-0.1486,-0.0304,0.0133,crawl,0.0600,0.0600,11.5172,0.0000,0,0,0,0.6969,2.9882,1,0,0,0.1800,1.0000,1.0000,0.4584,0.8334,69.4174,0.0000,0.2454,0.0200,0.1987,0.1477,0.0179,0.1987,0.1477,0.0179,-0.0027,0.0029,-0.0030,0.0000,0.0000,0.0000,0.0000,0.0179,-1,-1,0,0,none,0.0000,0.0000,nan,nan,nan,nan,nan,nan,0,0,0,1.0000,1,0,0.2123,1,nominal_approach,0,0.0000,0.0000,none,-0.0023,0.0053,-6.6318,2.6373,0,0.9132,0.1101,0.2169,0.8755,0,-1.7165,-0.2189,10.4585,1.4720,0,1,0,0,0.1800,1.0000,1.0000,-0.4047,0.5803,12.8907,0.0000,0.2278,0.0200,0.1979,-0.1494,0.0212,0.1979,-0.1494,0.0212,-0.0007,0.0032,0.0052,0.0000,0.0000,0.0000,0.0000,0.0212,-1,-1,0,0,none,0.0000,0.0000,nan,nan,nan,nan,nan,nan,0,0,0,1.0000,1,0,0.2106,1,nominal_approach,0,0.0000,0.0000,none,-0.0009,-0.0009,-0.1111,0.3945,0,0.9712,-0.0101,0.2704,0.0956,0,-1.8174,0.0086,1.7587,0.0829,0,0,0,0,nan,0.0000,0.0000,-0.0000,0.0000,-0.0000,0.0000,-0.1151,0.0200,-0.1540,0.1336,0.0452,-0.1543,0.1322,0.0610,0.0456,-0.0711,-0.3198,0.0159,0.0003,0.0014,-0.0159,0.0610,0,0,0,0,none,0.0000,0.0000,0.0000,0.0800,0.0600,0.5000,0.5000,-0.3200,0,0,0,0.0000,1,0,0.2278,0,nominal_approach,0,0.0000,0.0000,none,-0.0650,-0.3148,1.0229,-5.9928,0,1.0026,-0.9854,0.2742,-12.7261,0,-2.0018,1.4261,0.5675,-5.7785,0,1,0,0,0.1800,1.0000,1.0000,0.4640,0.5861,74.3822,0.0000,-0.1327,0.0200,-0.1709,-0.1493,0.0177,-0.1709,-0.1493,0.0177,-0.0008,0.0025,-0.0048,0.0000,0.0000,0.0000,0.0000,0.0177,-1,-1,0,0,none,0.0000,0.0000,nan,nan,nan,nan,nan,nan,0,0,0,1.0000,1,0,0.2107,1,nominal_approach,0,0.0000,0.0000,none,-0.0032,0.0171,5.2267,2.3361,0,0.9494,0.0009,0.1895,0.6522,0,-1.7805,-0.0096,11.5172,0.4235,0
0.5750,approach,approach,1,approach_nominal,0,0,0,1101,0.0213,0.0003,0.0086,0.0000,0.0000,0.2774,0.0000,0.0004,0.0000,0.0000,0.0000,0.1765,0.0130,0.1765,-0.0503,0.0000,0.0000,,0,0,idle,nan,nan,0.0000,0.0184,-0.0107,0.2818,0.0401,0.0052,-0.0009,-0.0114,0.0424,-0.0256,-0.1615,-0.0354,0.0045,crawl,0.0600,0.0600,11.5316,0.0000,0,0,0,0.6969,2.9882,1,0,0,0.1800,1.0000,1.0000,0.4584,0.8334,69.4174,0.0000,0.2454,0.0200,0.1987,0.1477,0.0178,0.1987,0.1477,0.0178,-0.0029,0.0030,-0.0014,0.0000,0.0000,0.0000,0.0000,0.0178,-1,-1,0,0,none,0.0000,0.0000,nan,nan,nan,nan,nan,nan,0,0,0,1.0000,1,0,0.2123,1,nominal_approach,0,0.0000,0.0000,none,-0.0021,0.0117,-6.5640,2.7112,0,0.9164,0.1442,0.2346,0.7085,0,-1.7225,-0.2592,10.4970,1.5385,0,1,0,0,0.1800,1.0000,1.0000,-0.4047,0.5803,12.8907,0.0000,0.2278,0.0200,0.1979,-0.1493,0.0213,0.1979,-0.1493,0.0213,-0.0007,0.0033,0.0013,0.0000,0.0000,0.0000,0.0000,0.0213,-1,-1,0,0,none,0.0000,0.0000,nan,nan,nan,nan,nan,nan,0,0,0,1.0000,1,0,0.2107,1,nominal_approach,0,0.0000,0.0000,none,-0.0008,0.0047,-0.1010,0.4067,0,0.9708,-0.0149,0.2729,0.1004,0,-1.8171,0.0193,1.7607,0.0809,0,0,0,0,nan,0.0000,0.0000,-0.0000,0.0000,-0.0000,0.0000,-0.1151,0.0200,-0.1527,0.1325,0.0287,-0.1538,0.1310,0.0527,0.0013,-0.0224,-0.3318,0.0241,0.0011,0.0015,-0.0240,0.0527,0,0,0,0,none,0.0000,0.0000,0.0000,0.0800,0.0600,0.5000,0.5000,-0.3200,0,0,0,0.0000,1,0,0.2290,0,nominal_approach,0,0.0000,0.0000,none,-0.0701,-0.0858,1.2148,7.6746,0,0.9797,-0.8500,0.2999,1.0294,0,-1.9633,1.5863,-0.2587,-33.0453,0,1,0,0,0.1800,1.0000,1.0000,0.4640,0.5861,74.3822,0.0000,-0.1327,0.0200,-0.1709,-0.1493,0.0176,-0.1709,-0.1493,0.0176,-0.0010,0.0029,-0.0030,0.0000,0.0000,0.0000,0.0000,0.0176,-1,-1,0,0,none,0.0000,0.0000,nan,nan,nan,nan,nan,nan,0,0,0,1.0000,1,0,0.2107,1,nominal_approach,0,0.0000,0.0000,none,-0.0029,0.0122,5.2938,2.6849,0,0.9496,0.0198,0.2068,0.6928,0,-1.7810,-0.0390,11.5316,0.5741,0
0.6000,approach,approach,1,approach_nominal,0,0,0,1101,0.0215,0.0003,0.0077,0.0000,0.0000,0.2774,0.0000,0.0004,0.0000,0.0000,0.0000,0.1766,0.0121,0.1766,-0.0502,0.0000,0.0000,,0,0,idle,nan,nan,0.0000,0.0182,-0.0096,0.2811,0.0357,0.0042,-0.0009,-0.0109,0.0463,-0.0310,-0.2028,-0.0504,-0.0052,crawl,0.0600,0.0600,8.6416,0.0000,0,0,0,0.7155,1.9357,1,0,0,0.1800,1.0000,1.0000,-2.2285,2.8488,55.7596,14.0647,0.2439,0.0200,0.1986,0.1478,0.0178,0.1986,0.1478,0.0178,-0.0031,0.0032,-0.0006,0.0000,0.0000,0.0000,0.0000,0.0178,-1,-1,0,0,none,0.0000,0.0000,nan,nan,nan,nan,nan,nan,0,0,0,1.0000,1,0,0.2122,1,nominal_approach,0,0.0000,0.0000,none,-0.0015,0.0450,-5.5675,39.8608,0,0.9205,0.1886,-0.4125,-25.8837,0,-1.7295,-0.2983,8.0233,-98.9467,0,1,0,0,0.1800,1.0000,1.0000,-2.6015,2.5925,18.2169,6.1027,0.2256,0.0200,0.1979,-0.1492,0.0213,0.1979,-0.1492,0.0213,-0.0007,0.0035,0.0000,0.0000,0.0000,0.0000,0.0000,0.0213,-1,-1,0,0,none,0.0000,0.0000,nan,nan,nan,nan,nan,nan,0,0,0,1.0000,1,0,0.2108,1,nominal_approach,0,0.0000,0.0000,none,-0.0004,0.0379,-0.1369,-1.4384,0,0.9705,-0.0093,-0.3075,-23.2145,0,-1.8165,0.0291,2.2875,21.0700,0,0,0,0,nan,0.0000,0.0000,10.3576,-11.8757,31.5733,35.2872,-0.1162,0.0200,-0.1522,0.1320,0.0208,-0.1540,0.1309,0.0454,-0.0086,0.0168,-0.2394,0.0248,0.0018,0.0011,-0.0247,0.0454,0,0,0,0,none,0.0000,0.0000,0.0000,0.0800,0.0600,0.5000,0.5000,-0.3200,0,0,0,0.0000,1,0,0.2291,0,nominal_approach,0,0.0000,0.0000,none,-0.0701,0.0940,1.4741,10.3724,0,0.9623,-0.5126,0.3686,2.7475,0,-1.9290,1.0697,-1.3740,-44.6117,0,1,0,0,0.1800,1.0000,1.0000,-2.5830,3.2317,58.8066,16.0899,-0.1344,0.0200,-0.1709,-0.1492,0.0175,-0.1709,-0.1492,0.0175,-0.0014,0.0033,-0.0014,0.0000,0.0000,0.0000,0.0000,0.0175,-1,-1,0,0,none,0.0000,0.0000,nan,nan,nan,nan,nan,nan,0,0,0,1.0000,1,0,0.2108,1,nominal_approach,0,0.0000,0.0000,none,-0.0024,0.0328,3.2917,-80.0872,0,0.9505,0.0518,-0.4975,-28.1721,0,-1.7825,-0.0741,8.6416,-115.5985,0
0.6250,approach,approach,1,approach_nominal,0,0,0,1111,0.0218,0.0003,0.0066,0.0000,0.0000,0.2774,0.0000,-0.0004,-0.0009,0.0000,0.0000,0.1769,0.1408,0.1769,-0.0047,0.0000,0.0000,,0,0,idle,nan,nan,0.0000,0.0177,-0.0082,0.2800,0.0310,0.0028,-0.0015,-0.0196,0.0591,-0.0605,-0.1874,-0.0776,-0.0423,crawl,0.0600,0.0600,8.6813,0.0000,0,0,0,0.7155,1.9357,1,0,0,0.1800,1.0000,1.0000,-2.2285,2.8488,55.7596,0.0000,0.2439,0.0200,0.1985,0.1479,0.0180,0.1985,0.1479,0.0180,-0.0052,0.0037,0.0128,0.0000,0.0000,0.0000,0.0000,0.0180,-1,-1,0,0,none,0.0000,0.0000,nan,nan,nan,nan,nan,nan,0,0,0,1.0000,1,0,0.2121,1,nominal_approach,0,0.0000,0.0000,none,-0.0010,0.0093,-5.5009,2.6611,0,0.9273,0.3488,-0.3950,0.6988,0,-1.7409,-0.5459,8.0758,2.0975,0,1,0,0,0.1800,1.0000,1.0000,-2.6015,2.5925,18.2169,0.0000,0.2256,0.0200,0.1978,-0.1491,0.0211,0.1978,-0.1491,0.0211,-0.0024,0.0040,-0.0097,0.0000,0.0000,0.0000,0.0000,0.0211,-1,-1,0,0,none,0.0000,0.0000,nan,nan,nan,nan,nan,nan,0,0,0,1.0000,1,0,0.2109,1,nominal_approach,0,0.0000,0.0000,none,-0.0002,-0.0008,-0.1172,0.7899,0,0.9703,0.0154,-0.3008,0.2671,0,-1.8167,-0.0544,2.2947,0.2896,0,1,1,0,0.0050,0.3515,0.3515,10.3576,-11.8757,31.5733,0.0000,-0.1162,0.0200,-0.1547,0.1315,0.0404,-0.1547,0.1315,0.0404,-0.2054,0.0227,-0.2921,0.0000,0.0000,0.0000,0.0000,0.0404,0,0,0,0,none,0.0000,0.0000,0.0000,0.0800,0.0600,0.5000,0.5000,-0.3200,0,0,0,0.0000,1,0,0.2285,0,nominal_approach,0,0.0000,0.0000,none,-0.0683,0.0253,1.1499,-12.9687,0,0.9554,0.3050,3.2519,115.3338,0,-1.9100,1.1065,6.4570,313.2372,0,1,0,0,0.1800,1.0000,1.0000,-2.5830,3.2317,58.8066,0.0000,-0.1344,0.0200,-0.1710,-0.1491,0.0178,-0.1710,-0.1491,0.0178,-0.0045,0.0049,0.0137,0.0000,0.0000,0.0000,0.0000,0.0178,-1,-1,0,0,none,0.0000,0.0000,nan,nan,nan,nan,nan,nan,0,0,0,1.0000,1,0,0.2109,1,nominal_approach,0,0.0000,0.0000,none,-0.0027,-0.0524,3.3724,3.2316,0,0.9535,0.1872,-0.4719,1.0213,0,-1.7883,-0.3462,8.6813,1.5854,0
0.6500,approach,approach,1,approach_nominal,0,0,0,1111,0.0221,0.0003,0.0052,0.0000,0.0000,0.2774,0.0000,-0.0004,0.0000,0.0000,0.0000,0.1776,0.1424,0.1776,-0.0044,0.0000,0.0000,,0,0,idle,nan,nan,0.0000,0.0173,-0.0065,0.2782,0.0261,-0.0006,-0.0036,-0.0198,0.0751,-0.0921,-0.2033,-0.1933,-0.1137,crawl,0.0600,0.0600,8.7512,0.0000,0,0,0,0.7155,1.9357,1,0,0,0.1800,1.0000,1.0000,-2.2285,2.8488,55.7596,0.0000,0.2439,0.0200,0.1983,0.1480,0.0183,0.1983,0.1480,0.0183,-0.0049,0.0041,0.0086,0.0000,0.0000,0.0000,0.0000,0.0183,-1,-1,0,0,none,0.0000,0.0000,nan,nan,nan,nan,nan,nan,0,0,0,1.0000,1,0,0.2120,1,nominal_approach,0,0.0000,0.0000,none,-0.0008,0.0127,-5.4282,2.9094,0,0.9385,0.5297,-0.3868,0.3303,0,-1.7551,-0.5926,8.1323,2.2603,0,1,0,0,0.1800,1.0000,1.0000,-2.6015,2.5925,18.2169,0.0000,0.2256,0.0200,0.1978,-0.1490,0.0209,0.1978,-0.1490,0.0209,-0.0040,0.0042,-0.0051,0.0000,0.0000,0.0000,0.0000,0.0209,-1,-1,0,0,none,0.0000,0.0000,nan,nan,nan,nan,nan,nan,0,0,0,1.0000,1,0,0.2110,1,nominal_approach,0,0.0000,0.0000,none,-0.0002,0.0044,-0.0934,0.9491,0,0.9723,0.1397,-0.2900,0.4333,0,-1.8191,-0.1350,2.3069,0.4881,0,1,0,0,0.0300,0.3981,0.3981,10.3576,-11.8757,31.5733,0.0000,-0.1162,0.0200,-0.1731,0.1321,0.0256,-0.1731,0.1321,0.0256,-1.2178,0.0308,-0.8168,0.0000,0.0000,0.0000,0.0000,0.0256,0,0,0,0,none,0.0000,0.0000,0.0000,0.0800,0.0600,0.5000,0.5000,-0.3200,0,0,0,0.0000,1,0,0.2279,0,nominal_approach,0,0.0000,0.0000,none,-0.0680,0.0214,1.3372,7.4937,0,0.9957,2.6367,2.8505,-16.0585,0,-1.8411,4.2537,6.2169,-9.6026,0,1,0,0,0.1800,1.0000,1.0000,-2.5830,3.2317,58.8066,0.0000,-0.1344,0.0200,-0.1712,-0.1489,0.0180,-0.1712,-0.1489,0.0180,-0.0072,0.0074,0.0080,0.0000,0.0000,0.0000,0.0000,0.0180,-1,-1,0,0,none,0.0000,0.0000,nan,nan,nan,nan,nan,nan,0,0,0,1.0000,1,0,0.2111,1,nominal_approach,0,0.0000,0.0000,none,-0.0053,-0.1457,3.4940,4.8628,0,0.9610,0.3922,-0.4316,1.6116,0,-1.7999,-0.5653,8.7512,2.7953,0
0.6750,approach,approach,1,approach_nominal,0,0,0,1111,0.0224,0.0003,0.0038,0.0000,0.0000,0.2774,0.0000,0.0004,0.0009,0.0000,0.0000,0.1781,0.1439,0.1781,-0.0042,0.0000,0.0000,,0,0,idle,nan,nan,0.0000,0.0168,-0.0047,0.2767,0.0289,0.0006,-0.0038,-0.0162,0.0567,-0.0274,0.4107,0.3049,0.1074,crawl,0.0600,0.0600,8.7970,0.0000,0,0,0,0.7155,1.9357,1,0,0,0.1800,1.0000,1.0000,-2.2285,2.8488,55.7596,0.0000,0.2439,0.0200,0.1982,0.1481,0.0185,0.1982,0.1481,0.0185,-0.0075,0.0060,0.0068,0.0000,0.0000,0.0000,0.0000,0.0185,-1,-1,0,0,none,0.0000,0.0000,nan,nan,nan,nan,nan,nan,0,0,0,1.0000,1,0,0.2119,1,nominal_approach,0,0.0000,0.0000,none,-0.0094,-0.6809,-5.3392,3.5615,0,0.9445,-0.0668,-0.3642,0.9013,0,-1.7700,-0.5987,8.1996,2.6928,0,1,0,0,0.1800,1.0000,1.0000,-2.6015,2.5925,18.2169,0.0000,0.2256,0.0200,0.1977,-0.1489,0.0208,0.1977,-0.1489,0.0208,-0.0038,0.0067,-0.0027,0.0000,0.0000,0.0000,0.0000,0.0208,-1,-1,0,0,none,0.0000,0.0000,nan,nan,nan,nan,nan,nan,0,0,0,1.0000,1,0,0.2111,1,nominal_approach,0,0.0000,0.0000,none,-0.0090,-0.6902,-0.0647,1.1509,0,0.9736,-0.0359,-0.2796,0.4156,0,-1.8265,-0.4528,2.3232,0.6495,0,1,0,0,0.0550,0.4950,0.4950,10.3576,-11.8757,31.5733,0.0000,-0.1162,0.0200,-0.1907,0.1327,0.0146,-0.1907,0.1327,0.0146,-0.1619,0.0057,-0.0427,0.0000,0.0000,0.0000,0.0000,0.0146,0,0,0,0,none,0.0000,0.0000,0.0000,0.0800,0.0600,0.5000,0.5000,-0.3200,0,0,0,0.1818,1,0,0.2273,0,nominal_approach,0,0.0000,0.0000,none,-0.0742,-0.4996,1.4912,6.1578,0,1.0238,-0.1715,2.4506,-15.9967,0,-1.7762,0.6101,5.9441,-10.9128,0,1,0,0,0.1800,1.0000,1.0000,-2.5830,3.2317,58.8066,0.0000,-0.1344,0.0200,-0.1713,-0.1488,0.0184,-0.1713,-0.1488,0.0184,0.0002,0.0029,0.0173,0.0000,0.0000,0.0000,0.0000,0.0184,-1,-1,0,0,none,0.0000,0.0000,nan,nan,nan,nan,nan,nan,0,0,0,1.0000,1,0,0.2112,1,nominal_approach,0,0.0000,0.0000,none,-0.0144,-0.5412,3.5919,3.9153,0,0.9623,-0.3165,-0.4049,1.0697,0,-1.8073,0.0242,8.7970,1.8346,0
0.7000,approach,approach,1,approach_nominal,0,0,0,1111,0.0227,0.0003,0.0028,0.0000,0.0000,0.2774,0.0000,0.0004,0.0000,0.0000,0.0000,0.1781,0.1448,0.1781,-0.0041,0.0000,0.0000,,0,0,idle,nan,nan,0.0000,0.0165,-0.0035,0.2763,0.0409,0.0108,0.0006,-0.0075,0.0413,-0.0127,0.4887,0.4785,0.1959,crawl,0.0600,0.0600,8.2201,0.0000,0,0,0,0.7130,1.6022,1,0,0,0.1800,1.0000,1.0000,-0.5430,1.4217,53.8023,2.9511,0.2412,0.0200,0.1980,0.1483,0.0186,0.1980,0.1483,0.0186,-0.0085,0.0065,0.0027,0.0000,0.0000,0.0000,0.0000,0.0186,-1,-1,0,0,none,0.0000,0.0000,nan,nan,nan,nan,nan,nan,0,0,0,1.0000,1,0,0.2117,1,nominal_approach,0,0.0000,0.0000,none,-0.0284,-0.7707,-4.6726,26.6643,0,0.9400,-0.2310,0.1288,19.7233,0,-1.7856,-0.6485,8.2201,0.8197,0,1,0,0,0.1800,1.0000,1.0000,-2.4382,1.4574,47.3437,29.1494,0.2225,0.0200,0.1976,-0.1487,0.0208,0.1976,-0.1487,0.0208,-0.0028,0.0073,0.0013,0.0000,0.0000,0.0000,0.0000,0.0208,-1,-1,0,0,none,0.0000,0.0000,nan,nan,nan,nan,nan,nan,0,0,0,1.0000,1,0,0.2113,1,nominal_approach,0,0.0000,0.0000,none,-0.0282,-0.7825,2.9990,122.5452,0,0.9724,-0.0455,-0.3363,-2.2693,0,-1.8399,-0.5873,7.0750,190.0716,0,1,0,0,0.0800,0.6211,0.6211,1.3681,-1.1881,22.8298,16.4768,-0.1184,0.0200,-0.1920,0.1327,0.0163,-0.1920,0.1327,0.0163,-0.0124,-0.0002,0.1023,0.0000,0.0000,0.0000,0.0000,0.0163,0,0,0,0,none,0.0000,0.0000,0.0000,0.0800,0.0600,0.5000,0.5000,-0.3200,0,0,0,0.6364,1,0,0.2273,0,nominal_approach,0,0.0000,0.0000,none,-0.0871,-0.4747,-0.5622,-82.1370,0,1.0135,-0.5550,0.2909,-86.3878,0,-1.7733,-0.0145,3.3165,-105.1038,0,1,0,0,0.1800,1.0000,1.0000,-2.2998,3.5851,49.0298,9.7873,-0.1371,0.0200,-0.1712,-0.1488,0.0187,-0.1712,-0.1488,0.0187,0.0047,0.0001,0.0049,0.0000,0.0000,0.0000,0.0000,0.0187,-1,-1,0,0,none,0.0000,0.0000,nan,nan,nan,nan,nan,nan,0,0,0,1.0000,1,0,0.2112,1,nominal_approach,0,0.0000,0.0000,none,-0.0280,-0.5022,2.5942,-39.9068,0,0.9504,-0.5624,-0.3141,3.6326,0,-1.8025,0.2924,7.2535,-61.7421,0
